Name,Facility_ID,RightNumber,Category,BusinessStatus,DetailedBusinessStatus,BusinessStatusCode,DetailedStatusCode,LocationArea,RoadAddress,PostalCode,LotAddress,LotPostalCode,lat,lon,PhoneNumber,LicenseDate,LicenseWithdrawalDate,ReopeningDate,ClosingDate,TempClosingStart,TempClosingEnd,DataUpdateType,LastUpdated,LastModificationTime,Sido,Sigungu,region_key,coord_status
TEAM 1st SHOW ROOM,370000004920180033,000,3700000,영업/정상,정상,1,0,0.0,"울산광역시 남구 돋질로 ***, *층 (삼산동)",44710.0,울산광역시 남구 삼산동 ***-**,,35.54373125637094,129.34746087799772,,2018-05-29,,,,,,I,2026-01-13,2022-04-28,울산광역시,남구,울산광역시_남구,ok
군밤이네,370000004920180035,000,3700000,영업/정상,정상,1,0,0.0,울산광역시 남구 옥현로 ** (무거동),44611.0,울산광역시 남구 무거동 ***-**,,35.54171856144988,129.26134465557544,,2018-05-29,,,,,,I,2026-01-13,2024-01-30,울산광역시,남구,울산광역시_남구,ok
대구애견조류원,370000004920180039,000,3700000,영업/정상,정상,1,0,0.0,"울산광역시 남구 중앙로 ***-*, *층 (신정동)",44669.0,울산광역시 남구 신정동 ***-*,,35.54544987531431,129.3096930255618,,2018-07-04,,,,,,I,2026-01-13,2022-04-28,울산광역시,남구,울산광역시_남구,ok
사랑동물병원,370000004920180042,000,3700000,영업/정상,정상,1,0,0.0,울산광역시 남구 중앙로 ***-* (신정동),44676.0,울산광역시 남구 신정동 ***-*,,35.53582830734364,129.31345736789515,,2018-07-09,,,,,,I,2026-01-13,2022-04-28,울산광역시,남구,울산광역시_남구,ok
꽁냥꽁냥캣,370000004920180043,000,3700000,영업/정상,정상,1,0,0.0,울산광역시 남구 돋질로 *** (달동),44695.0,울산광역시 남구 달동 ***-*,,35.5413122695167,129.32576342498098,,2018-07-12,,,,,,I,2026-01-13,2022-04-28,울산광역시,남구,울산광역시_남구,ok
도그 포레스트,370000004920180048,000,3700000,영업/정상,정상,1,0,0.0,"울산광역시 남구 삼산로***번길 *, 도그 포레스트 (달동)",44693.0,울산광역시 남구 달동 ***-**,,35.53599949058124,129.31983373644147,,2018-08-20,,,,,,I,2026-01-13,2022-04-28,울산광역시,남구,울산광역시_남구,ok
달진상회(살롱드캣),370000004920180049,000,3700000,영업/정상,정상,1,0,0.0,"울산광역시 남구 중앙로 ***, *층 (신정동)",44730.0,울산광역시 남구 신정동 ***-**,,35.53261697310138,129.31456395679868,052-267-1929,2018-08-20,,,,,,I,2026-01-13,2022-04-28,울산광역시,남구,울산광역시_남구,ok
신운미애견미용실,370000004920180052,000,3700000,영업/정상,정상,1,0,0.0,"울산광역시 남구 팔등로 **, *층 (신정동)",44669.0,울산광역시 남구 신정동 ***-*,,35.54476600946008,129.30982264331982,052-900-2500,2018-08-21,,,,,,I,2026-01-13,2023-06-14,울산광역시,남구,울산광역시_남구,ok
펫하우스 동물병원,370000004920180057,000,3700000,영업/정상,정상,1,0,0.0,"울산광역시 남구 남중로 **, 울산 이마트 *층 (삼산동)",44716.0,울산광역시 남구 삼산동 **** 울산점 EMART,,35.53878,129.31362,052-273-0975,2018-09-13,,,,,,I,2026-01-13,2022-04-28,울산광역시,남구,울산광역시_남구,centroid_fallback
옥동종합동물병원,370000004920180060,000,3700000,영업/정상,정상,1,0,0.0,울산광역시 남구 문수로 *** (옥동),44662.0,울산광역시 남구 옥동 ***-*,,35.534472983107825,129.29248755145866,052-271-7582,2018-09-13,,,,,,I,2026-01-13,2023-02-16,울산광역시,남구,울산광역시_남구,ok
현대동물병원,370000004920180062,000,3700000,영업/정상,정상,1,0,0.0,"울산광역시 남구 수암로***번길 *, 현대동물병원 (야음동)",44736.0,울산광역시 남구 야음동 ***-**,,35.527233456549446,129.32344172704086,052-257-3669,2018-09-26,,,,,,I,2026-01-13,2022-04-28,울산광역시,남구,울산광역시_남구,ok
강아지집 미용실,370000004920180063,000,3700000,영업/정상,정상,1,0,0.0,울산광역시 남구 옥현로 * (무거동),44611.0,울산광역시 남구 무거동 ***-**,,35.53928639536866,129.25729641219883,,2018-09-26,,,,,,I,2026-01-13,2023-12-01,울산광역시,남구,울산광역시_남구,ok
울산 제이앤독 애견샵,370000004920180067,000,3700000,영업/정상,정상,1,0,0.0,울산광역시 남구 번영로 *** (달동),44695.0,울산광역시 남구 달동 ***-*,,35.53788933704439,129.3272370332081,052-268-2848,2018-09-26,,,,,,I,2026-01-13,2022-04-28,울산광역시,남구,울산광역시_남구,ok
우리 애견 미용실,370000004920180071,000,3700000,영업/정상,정상,1,0,0.0,울산광역시 남구 번영로 ***-* (달동),44695.0,울산광역시 남구 달동 ***-*,,35.53838991376102,129.32709974867566,052-257-7582,2018-10-14,,,,,,I,2026-01-13,2022-04-28,울산광역시,남구,울산광역시_남구,ok
대공원 동물병원,370000004920180072,000,3700000,영업/정상,정상,1,0,0.0,"울산광역시 남구 대공원로 ***, ***호 (신정동, 대공원코오롱파크폴리스)",44667.0,울산광역시 남구 신정동 **** 대공원코오롱파크폴리스,,35.53878,129.31362,052-258-2520,2020-12-02,,,,,,I,2026-01-13,2022-04-28,울산광역시,남구,울산광역시_남구,centroid_fallback
미래펫 동물병원,370000004920180073,000,3700000,영업/정상,정상,1,0,0.0,울산광역시 남구 중앙로 ***-* (신정동),44690.0,울산광역시 남구 신정동 ***-*,,35.54042292839034,129.31227824752122,052-273-5911,2018-10-16,,,,,,I,2026-01-13,2022-04-28,울산광역시,남구,울산광역시_남구,ok
튼튼동물병원,370000004920180074,000,3700000,영업/정상,정상,1,0,0.0,"울산광역시 남구 북부순환도로 **, 튼튼동물병원 (무거동)",44629.0,울산광역시 남구 무거동 **** 남운산호상가,,35.53878,129.31362,052-247-7975,2018-10-16,,,,,,I,2026-01-13,2022-04-28,울산광역시,남구,울산광역시_남구,centroid_fallback
강남애견백화점,370000004920180077,000,3700000,영업/정상,정상,1,0,0.0,울산광역시 남구 돋질로 *** (달동),44703.0,울산광역시 남구 달동 ****-*,,35.54263301854224,129.33057724796942,052-267-0025,2018-10-29,,,,,,I,2026-01-13,2022-04-28,울산광역시,남구,울산광역시_남구,ok
포근한강아지,370000004920180080,000,3700000,영업/정상,정상,1,0,0.0,"울산광역시 남구 문수로***번길 ** (옥동, 옥동성도아파트)",44644.0,울산광역시 남구 옥동 ***-** 옥동성도아파트,,35.53897324064008,129.28997677881242,,2018-12-02,,,,,,I,2026-01-13,2022-04-28,울산광역시,남구,울산광역시_남구,ok
데일리 그루밍,370000004920190002,000,3700000,영업/정상,정상,1,0,0.0,"울산광역시 남구 정동로***번길 **, *층 ***호 (삼산동)",44710.0,울산광역시 남구 삼산동 ***-*,,35.544038051709954,129.34612103306105,,2019-01-27,,,,,,I,2026-01-13,2022-04-28,울산광역시,남구,울산광역시_남구,ok
미미펫살롱,370000004920190005,000,3700000,영업/정상,정상,1,0,0.0,울산광역시 남구 신정로**번길 ** (달동),44722.0,울산광역시 남구 달동 ****-*,,35.53243355559288,129.31899815735522,,2019-04-25,,,,,,I,2026-01-13,2022-09-20,울산광역시,남구,울산광역시_남구,ok
애화살롱,370000004920190007,000,3700000,영업/정상,정상,1,0,0.0,"울산광역시 남구 삼산로 ***, *층 (달동)",44726.0,울산광역시 남구 달동 ***-*,,35.536447487832405,129.32490307710972,052-700-3535,2019-05-22,,,,,,I,2026-01-13,2023-01-04,울산광역시,남구,울산광역시_남구,ok
개까까유,365000004920250004,000,3650000,영업/정상,정상,1,0,0.0,"대전광역시 중구 보문산로**번길 **, ***호호 (산성동, 정다운아파트)",34989.0,대전광역시 중구 산성동 ***-* 정다운아파트,,36.30564767339997,127.38552010866948,,2025-10-29,,,,,,I,2026-01-13,2025-10-29,대전광역시,중구,대전광역시_중구,ok
악동이 애견미용실,365000004920250005,000,3650000,영업/정상,정상,1,0,0.0,대전광역시 중구 당디로***번길 ** (유천동),34977.0,대전광역시 중구 유천동 ***-*,,36.3158370560658,127.3916774609418,,2025-11-18,,,,,,I,2026-01-13,2025-11-18,대전광역시,중구,대전광역시_중구,ok
단아몽,365000004920260001,000,3650000,영업/정상,정상,1,0,0.0,대전광역시 중구 선화로**번길 **-* (선화동),34860.0,대전광역시 중구 선화동 ***-**,,36.32664915269193,127.41569480336018,,2026-01-06,,,,,,I,2026-01-13,2026-01-06,대전광역시,중구,대전광역시_중구,ok
해피도그,366000004920180005,000,3660000,영업/정상,정상,1,0,0.0,대전광역시 서구 신갈마로 *** (갈마동),35281.0,대전광역시 서구 갈마동 ***-*,,36.344807074836496,127.3683043690217,,2018-04-19,,,,,,I,2026-01-13,2022-04-28,대전광역시,서구,대전광역시_서구,ok
펫살롱 도도,366000004920180007,000,3660000,영업/정상,정상,1,0,0.0,대전광역시 서구 월평로**번길 ** (월평동),35224.0,대전광역시 서구 월평동 ***,,36.33187,127.37398,,2018-04-19,,,,,,I,2026-01-13,2022-04-28,대전광역시,서구,대전광역시_서구,centroid_fallback
이마트 둔산점,366000004920180008,L00,3660000,영업/정상,정상,1,0,0.0,"대전광역시 서구 둔산북로 **, 대전둔산이마트 *층 (둔산동)",35229.0,대전광역시 서구 둔산동 ***-* 대전둔산이마트,,36.35635034752914,127.37818438677188,042-479-1053,2018-04-23,,,,,,I,2026-01-13,2024-04-16,대전광역시,서구,대전광역시_서구,ok
펫코디,366000004920180011,000,3660000,영업/정상,정상,1,0,0.0,"대전광역시 서구 원도안로***번길 **, *층 (도안동)",35352.0,대전광역시 서구 도안동 ****,,36.33187,127.37398,,2018-05-01,,,,,,I,2026-01-13,2022-04-28,대전광역시,서구,대전광역시_서구,centroid_fallback
몽몽(MongMong),366000004920180012,000,3660000,영업/정상,정상,1,0,0.0,"대전광역시 서구 가장로 **, ***호 (괴정동)",35291.0,대전광역시 서구 괴정동 **-**,,36.33886447051142,127.3798990452029,,2018-05-03,,,,,,I,2026-01-13,2022-04-28,대전광역시,서구,대전광역시_서구,ok
정 동물병원,366000004920180013,000,3660000,영업/정상,정상,1,0,0.0,"대전광역시 서구 괴정로 ***, *층 ***호 (괴정동)",35295.0,대전광역시 서구 괴정동 **-*,,36.337510954261525,127.38528729824408,042-533-8866,2018-05-17,,,,,,I,2026-01-13,2022-07-14,대전광역시,서구,대전광역시_서구,ok
행복한 강아지,366000004920180014,000,3660000,영업/정상,정상,1,0,0.0,대전광역시 서구 갈마중로**번길 * (갈마동),35272.0,대전광역시 서구 갈마동 ****,,36.33187,127.37398,042-533-0560,2018-05-17,,,,,,I,2026-01-13,2023-02-01,대전광역시,서구,대전광역시_서구,centroid_fallback
나르매애견,366000004920180021,000,3660000,영업/정상,정상,1,0,0.0,대전광역시 서구 도산로 ***-* (가장동),35311.0,대전광역시 서구 가장동 **-**,,36.332650404980384,127.38631683363776,042-528-2228,2018-06-18,,,,,,I,2026-01-13,2022-04-28,대전광역시,서구,대전광역시_서구,ok
내동애견,366000004920180032,000,3660000,영업/정상,정상,1,0,0.0,"대전광역시 서구 도솔로 ***, *층 (내동)",35289.0,대전광역시 서구 내동 **-*,,36.33163477247563,127.37674837831555,042-525-4400,2018-07-19,,,,,,I,2026-01-13,2024-04-05,대전광역시,서구,대전광역시_서구,ok
그루밍펫,366000004920180033,000,3660000,영업/정상,정상,1,0,0.0,대전광역시 서구 정림동로*번길 ** (정림동),35396.0,대전광역시 서구 정림동 ***,,36.33187,127.37398,042-300-1767,2018-07-19,,,,,,I,2026-01-13,2022-04-28,대전광역시,서구,대전광역시_서구,centroid_fallback
엄마손 동물병원,366000004920180036,000,3660000,영업/정상,정상,1,0,0.0,"대전광역시 서구 계백로 ****, ***호 (도마동, 도마동써머스빌주상복합)",35400.0,대전광역시 서구 도마동 ***-* 도마동써머스빌주상복합,,36.3126237531795,127.37979031363106,042-585-0076,2018-08-09,,,,,,I,2026-01-13,2022-04-28,대전광역시,서구,대전광역시_서구,ok
강아지톡,366000004920180037,000,3660000,영업/정상,정상,1,0,0.0,"대전광역시 서구 둔산남로***번길 **, *층 (둔산동)",35250.0,대전광역시 서구 둔산동 **** *층,,36.33187,127.37398,042-477-0089,2018-08-16,,,,,,I,2026-01-13,2023-09-06,대전광역시,서구,대전광역시_서구,centroid_fallback
강아지의 하루,366000004920180041,000,3660000,영업/정상,정상,1,0,0.0,대전광역시 서구 정림동로*번길 ** (정림동),35396.0,대전광역시 서구 정림동 ***,,36.33187,127.37398,042-581-2240,2018-08-16,,,,,,I,2026-01-13,2022-04-28,대전광역시,서구,대전광역시_서구,centroid_fallback
하얀강아지,366000004920180043,000,3660000,영업/정상,정상,1,0,0.0,대전광역시 서구 갈마로 ** (갈마동),35272.0,대전광역시 서구 갈마동 ***-**,,36.34545798836057,127.3698041159342,042-534-9393,2018-08-16,,,,,,I,2026-01-13,2024-06-04,대전광역시,서구,대전광역시_서구,ok
야옹아멍멍해봐,366000004920180049,000,3660000,영업/정상,정상,1,0,0.0,대전광역시 서구 관저중로**번길 ** (관저동),35378.0,대전광역시 서구 관저동 ****,,36.33187,127.37398,042-544-0048,2018-08-30,,,,,,I,2026-01-13,2022-04-28,대전광역시,서구,대전광역시_서구,centroid_fallback
와이즈 동물병원,366000004920180051,000,3660000,영업/정상,정상,1,0,0.0,대전광역시 서구 원도안로 ** (가수원동),35368.0,대전광역시 서구 가수원동 ***,,36.33187,127.37398,042-716-3475,2018-09-03,,,,,,I,2026-01-13,2022-04-28,대전광역시,서구,대전광역시_서구,centroid_fallback
잔다냥,366000004920180061,000,3660000,영업/정상,정상,1,0,0.0,"대전광역시 서구 계룡로 ***, *층 (갈마동)",35231.0,대전광역시 서구 갈마동 ***-**,,36.35222646116086,127.37072597910095,042-485-7977,2018-09-14,,,,,,I,2026-01-13,2022-04-28,대전광역시,서구,대전광역시_서구,ok
안호영 동물병원,366000004920180065,000,3660000,영업/정상,정상,1,0,0.0,대전광역시 서구 계룡로 *** (갈마동),35275.0,대전광역시 서구 갈마동 ***-*,,36.35306882416163,127.36828286571534,,2018-09-14,,,,,,I,2026-01-13,2026-01-08,대전광역시,서구,대전광역시_서구,ok
선사애견,366000004920180066,000,3660000,영업/정상,정상,1,0,0.0,"대전광역시 서구 대덕대로***번길 **, *층 (월평동)",35213.0,대전광역시 서구 월평동 ***,,36.33187,127.37398,042-482-9839,2018-09-14,,,,,,I,2026-01-13,2022-04-28,대전광역시,서구,대전광역시_서구,centroid_fallback
갈마애견,366000004920180069,000,3660000,영업/정상,정상,1,0,0.0,"대전광역시 서구 신갈마로 ***, *층 (갈마동)",35227.0,대전광역시 서구 갈마동 ***,,36.33187,127.37398,042-485-1406,2018-10-01,,,,,,I,2026-01-13,2022-04-28,대전광역시,서구,대전광역시_서구,centroid_fallback
펫플레이스,366000004920180076,000,3660000,영업/정상,정상,1,0,0.0,"대전광역시 서구 갈마로 ***, *층 ***호 (괴정동)",35293.0,대전광역시 서구 괴정동 **-**,,36.334914896363344,127.38046628233262,,2018-10-05,,,,,,I,2026-01-13,2025-03-21,대전광역시,서구,대전광역시_서구,ok
쌤아저씨,366000004920180078,000,3660000,영업/정상,정상,1,0,0.0,"대전광역시 서구 대덕대로 *, *층 (내동)",35286.0,대전광역시 서구 내동 ***-**,,36.334203883761326,127.37230181944534,042-222-0075,2018-10-05,,,,,,I,2026-01-13,2022-07-14,대전광역시,서구,대전광역시_서구,ok
똥강아지,366000004920180080,000,3660000,영업/정상,정상,1,0,0.0,"대전광역시 서구 괴정로 ***, *층 (괴정동)",35298.0,대전광역시 서구 괴정동 **-**,,36.338061459228754,127.38522312265955,042-523-0274,2018-10-10,,,,,,I,2026-01-13,2022-07-20,대전광역시,서구,대전광역시_서구,ok
우리강아지,366000004920180083,000,3660000,영업/정상,정상,1,0,0.0,"대전광역시 서구 만년로**번길 **, ***호 (만년동)",35200.0,대전광역시 서구 만년동 ***,,36.33187,127.37398,042-471-0111,2018-10-16,,,,,,I,2026-01-13,2022-04-28,대전광역시,서구,대전광역시_서구,centroid_fallback
도그웨이살롱,366000004920180088,000,3660000,영업/정상,정상,1,0,0.0,"대전광역시 서구 관저북로**번길 **-**, 이솔하우스 *층 (관저동)",35360.0,대전광역시 서구 관저동 **** 이솔하우스,,36.33187,127.37398,042-542-1799,2018-10-16,,,,,,I,2026-01-13,2022-04-28,대전광역시,서구,대전광역시_서구,centroid_fallback
더개,366000004920180093,000,3660000,영업/정상,정상,1,0,0.0,"대전광역시 서구 문정로***번길 **, *층 (탄방동)",35256.0,대전광역시 서구 탄방동 ***,,36.33187,127.37398,042-483-0429,2018-11-01,,,,,,I,2026-01-13,2022-04-28,대전광역시,서구,대전광역시_서구,centroid_fallback
펍테일,366000004920180095,000,3660000,영업/정상,정상,1,0,0.0,"대전광역시 서구 신갈마로 ***, *층 (갈마동)",35227.0,대전광역시 서구 갈마동 ***,,36.33187,127.37398,,2018-11-01,,,,,,I,2026-01-13,2022-04-28,대전광역시,서구,대전광역시_서구,centroid_fallback
강아지풍경,366000004920180101,000,3660000,영업/정상,정상,1,0,0.0,"대전광역시 서구 문정로*번길 **, *층 (탄방동, 시티빌Ⅱ)",35261.0,대전광역시 서구 탄방동 *** 시티빌Ⅱ,,36.33187,127.37398,042-485-1204,2018-12-14,,,,,,I,2026-01-13,2022-04-28,대전광역시,서구,대전광역시_서구,centroid_fallback
연이동물병원,366000004920190002,000,3660000,영업/정상,정상,1,0,0.0,"대전광역시 서구 정림로 **, *층 (정림동)",35396.0,대전광역시 서구 정림동 ***,,36.33187,127.37398,042-581-7282,2019-01-07,,,,,,I,2026-01-13,2022-04-28,대전광역시,서구,대전광역시_서구,centroid_fallback
애틋하개,366000004920190004,000,3660000,영업/정상,정상,1,0,0.0,"대전광역시 서구 계룡로***번길 **, *층 (괴정동)",35268.0,대전광역시 서구 괴정동 *-**,,36.34106180041028,127.3836235290736,,2019-02-08,,,,,,I,2026-01-13,2022-04-28,대전광역시,서구,대전광역시_서구,ok
Holly Shop,366000004920190005,000,3660000,영업/정상,정상,1,0,0.0,"대전광역시 서구 용소로**번길 **, ***호 (도안동)",35369.0,대전광역시 서구 도안동 **** ***호,,36.33187,127.37398,,2019-02-14,,,,,,I,2026-01-13,2023-01-18,대전광역시,서구,대전광역시_서구,centroid_fallback
대전종합동물병원,366000004920190006,000,3660000,영업/정상,정상,1,0,0.0,"대전광역시 서구 대덕대로***번길 **, 동원빌딩 *층 (갈마동)",35265.0,대전광역시 서구 갈마동 **** 동원빌딩,,36.33187,127.37398,,2019-02-19,,,,,,I,2026-01-13,2026-01-08,대전광역시,서구,대전광역시_서구,centroid_fallback
강아지왈츠,366000004920190013,000,3660000,영업/정상,정상,1,0,0.0,"대전광역시 서구 계룡로***번길 **, *층 (둔산동)",35235.0,대전광역시 서구 둔산동 ****,,36.33187,127.37398,,2019-03-26,,,,,,I,2026-01-13,2022-04-28,대전광역시,서구,대전광역시_서구,centroid_fallback
온리유 펫살롱,366000004920190029,000,3660000,영업/정상,정상,1,0,0.0,"대전광역시 서구 월평로 **, *층 (월평동)",35221.0,대전광역시 서구 월평동 ***,,36.33187,127.37398,,2019-08-19,,,,,,I,2026-01-13,2022-04-28,대전광역시,서구,대전광역시_서구,centroid_fallback
피터펫,366000004920190033,000,3660000,영업/정상,정상,1,0,0.0,"대전광역시 서구 유등로 ***, *층 (탄방동)",35253.0,대전광역시 서구 탄방동 ****-*,,36.34577529927345,127.40139664170312,070-8737-0707,2019-09-19,,,,,,I,2026-01-13,2022-04-28,대전광역시,서구,대전광역시_서구,ok
르돌치 일구사륙 용문점,366000004920190034,000,3660000,영업/정상,정상,1,0,0.0,"대전광역시 서구 괴정로 ***, *층 (용문동)",35301.0,대전광역시 서구 용문동 ***-*,,36.33538453495354,127.38841997157768,042-526-8055,2019-09-19,,,,,,I,2026-01-13,2022-04-28,대전광역시,서구,대전광역시_서구,ok
스누피 펫살롱,366000004920190044,000,3660000,영업/정상,정상,1,0,0.0,"대전광역시 서구 문정로 ***, *층 (둔산동)",35245.0,대전광역시 서구 둔산동 ****,,36.33187,127.37398,,2019-12-27,,,,,,I,2026-01-13,2022-04-28,대전광역시,서구,대전광역시_서구,centroid_fallback
개컷,366000004920200003,000,3660000,영업/정상,정상,1,0,0.0,"대전광역시 서구 구봉로**번길 **-**, ***호 (관저동)",35370.0,대전광역시 서구 관저동 ****-*,,36.29684379663697,127.32486030757195,,2020-01-31,,,,,,I,2026-01-13,2022-04-28,대전광역시,서구,대전광역시_서구,ok
블링펫,366000004920200006,000,3660000,영업/정상,정상,1,0,0.0,"대전광역시 서구 문정로***번길 ***, *층 (둔산동)",35250.0,대전광역시 서구 둔산동 ****,,36.33187,127.37398,,2020-02-19,,,,,,I,2026-01-13,2024-07-29,대전광역시,서구,대전광역시_서구,centroid_fallback
펫밀리#,366000004920200017,000,3660000,영업/정상,정상,1,0,0.0,"대전광역시 서구 계룡로***번길 **, 휴프라임 ***호 (월평동)",35226.0,대전광역시 서구 월평동 **** 휴프라임,,36.33187,127.37398,,2020-06-04,,,,,,I,2026-01-13,2025-11-11,대전광역시,서구,대전광역시_서구,centroid_fallback
개샤방,366000004920200023,000,3660000,영업/정상,정상,1,0,0.0,"대전광역시 서구 갈마로 ***, *층 (괴정동)",35293.0,대전광역시 서구 괴정동 **-**,,36.33522811439256,127.38017876541706,,2020-06-30,,,,,,I,2026-01-13,2022-04-28,대전광역시,서구,대전광역시_서구,ok
참좋은애견,366000004920200029,000,3660000,영업/정상,정상,1,0,0.0,"대전광역시 서구 도산로 **, *층 (도마동)",35332.0,대전광역시 서구 도마동 ***-**,,36.31578648310454,127.3791359234437,042-538-0085,2020-08-04,,,,,,I,2026-01-13,2022-04-28,대전광역시,서구,대전광역시_서구,ok
펫클래식,366000004920200034,000,3660000,영업/정상,정상,1,0,0.0,"대전광역시 서구 원도안로***번길 **-**, *층 (도안동)",35352.0,대전광역시 서구 도안동 ****,,36.33187,127.37398,,2020-08-12,,,,,,I,2026-01-13,2023-07-17,대전광역시,서구,대전광역시_서구,centroid_fallback
츄펫살롱,366000004920200041,000,3660000,영업/정상,정상,1,0,0.0,"대전광역시 서구 계룡로***번길 **, *층 ***호 (용문동, 용문동 리베라 아이누리아파트 *단지)",35305.0,대전광역시 서구 용문동 ***-* 용문동 리베라 아이누리아파트 *단지,,36.33477740592032,127.39615327086985,,2020-10-21,,,,,,I,2026-01-13,2025-03-31,대전광역시,서구,대전광역시_서구,ok
반려견 돌봄센터 일구삼,366000004920200044,000,3660000,영업/정상,정상,1,0,0.0,"대전광역시 서구 신갈마로 ***, *층 ***호 (갈마동)",35276.0,대전광역시 서구 갈마동 ***-** ***호,,36.351011053114256,127.36788947859188,,2020-11-03,,,,,,I,2026-01-13,2022-04-28,대전광역시,서구,대전광역시_서구,ok
엘리자펫,366000004920200045,000,3660000,영업/정상,정상,1,0,0.0,"대전광역시 서구 둔산로 *, *층 ***호 (둔산동)",35230.0,대전광역시 서구 둔산동 **** ***호,,36.33187,127.37398,,2020-11-03,,,,,,I,2026-01-13,2022-04-28,대전광역시,서구,대전광역시_서구,centroid_fallback
로에펫,366000004920200049,000,3660000,영업/정상,정상,1,0,0.0,"대전광역시 서구 계룡로 ***-*, ***호 (갈마동)",35231.0,대전광역시 서구 갈마동 ***-**,,36.35216267960284,127.3710955232593,,2020-12-23,,,,,,I,2026-01-13,2025-08-28,대전광역시,서구,대전광역시_서구,ok
관저펫미용,366000004920200052,000,3660000,영업/정상,정상,1,0,0.0,"대전광역시 서구 관저로***번길 **, *층 ***호 (관저동)",35378.0,대전광역시 서구 관저동 ****,,36.33187,127.37398,042-541-4023,2020-12-23,,,,,,I,2026-01-13,2022-04-28,대전광역시,서구,대전광역시_서구,centroid_fallback
바르다펫 대전점,366000004920210001,000,3660000,영업/정상,정상,1,0,0.0,"대전광역시 서구 도안중로***번길 **, *층 (도안동)",35353.0,대전광역시 서구 도안동 ****,,36.33187,127.37398,,2021-01-15,,,,,,I,2026-01-13,2022-04-28,대전광역시,서구,대전광역시_서구,centroid_fallback
예쁜강아지,366000004920210002,000,3660000,영업/정상,정상,1,0,0.0,"대전광역시 서구 도마*길 **, *층 (도마동)",35332.0,대전광역시 서구 도마동 ***-*,,36.31438095844829,127.3812306125466,042-535-7552,2021-02-10,,,,,,I,2026-01-13,2022-04-28,대전광역시,서구,대전광역시_서구,ok
아이몽펫,366000004920210003,000,3660000,영업/정상,정상,1,0,0.0,"대전광역시 서구 원도안로***번안길 *-*, ***호 (도안동)",35354.0,대전광역시 서구 도안동 ****,,36.33187,127.37398,,2021-02-26,,,,,,I,2026-01-13,2024-04-12,대전광역시,서구,대전광역시_서구,centroid_fallback
민들레애견,366000004920210004,000,3660000,영업/정상,정상,1,0,0.0,"대전광역시 서구 배재로 **, *층 (도마동)",35338.0,대전광역시 서구 도마동 ***-*,,36.31674083991867,127.37148160728616,042-535-1530,2021-03-02,,,,,,I,2026-01-13,2022-04-28,대전광역시,서구,대전광역시_서구,ok
모모랑,366000004920210005,000,3660000,영업/정상,정상,1,0,0.0,"대전광역시 서구 원도안로***번안길 **, ***호 (도안동)",35354.0,대전광역시 서구 도안동 ****,,36.33187,127.37398,,2021-03-03,,,,,,I,2026-01-13,2025-01-08,대전광역시,서구,대전광역시_서구,centroid_fallback
고양이민박,366000004920210008,000,3660000,영업/정상,정상,1,0,0.0,"대전광역시 서구 계백로 ****, ***호 (가수원동)",35368.0,대전광역시 서구 가수원동 ****,,36.33187,127.37398,,2021-04-25,,,,,,I,2026-01-13,2022-04-28,대전광역시,서구,대전광역시_서구,centroid_fallback
미용하는 강아지,366000004920210014,000,3660000,영업/정상,정상,1,0,0.0,"대전광역시 서구 관저남로**번길 *-*, ***호 (관저동)",35383.0,대전광역시 서구 관저동 ****-*,,36.29452504502284,127.33623611181774,042-541-0160,2021-06-10,,,,,,I,2026-01-13,2022-04-28,대전광역시,서구,대전광역시_서구,ok
누리개,366000004920210015,000,3660000,영업/정상,정상,1,0,0.0,"대전광역시 서구 관저동로 **-**, ***호 (관저동)",35381.0,대전광역시 서구 관저동 ****,,36.33187,127.37398,,2021-06-15,,,,,,I,2026-01-13,2022-04-28,대전광역시,서구,대전광역시_서구,centroid_fallback
러블리댕,366000004920210018,000,3660000,영업/정상,정상,1,0,0.0,대전광역시 서구 용소로**번길 ** (도안동),35369.0,대전광역시 서구 도안동 ****,,36.33187,127.37398,,2021-07-07,,,,,,I,2026-01-13,2024-03-28,대전광역시,서구,대전광역시_서구,centroid_fallback
페르시안캣,366000004920210022,000,3660000,영업/정상,정상,1,0,0.0,"대전광역시 서구 용소로**번길 **, 지중해 하우스 *층 (도안동)",35369.0,대전광역시 서구 도안동 **** 지중해 하우스,,36.33187,127.37398,,2021-07-13,,,,,,I,2026-01-13,2025-08-28,대전광역시,서구,대전광역시_서구,centroid_fallback
댕발소,366000004920210029,000,3660000,영업/정상,정상,1,0,0.0,"대전광역시 서구 동서대로****번길 **, 만조빌 ***호 (내동)",35288.0,대전광역시 서구 내동 **-** 만조빌,,36.335835679680535,127.37673175397344,,2021-10-25,,,,,,I,2026-01-13,2022-04-28,대전광역시,서구,대전광역시_서구,ok
멍멍이 클럽,366000004920210030,000,3660000,영업/정상,정상,1,0,0.0,"대전광역시 서구 도안북로 **, ***호 (도안동)",35350.0,대전광역시 서구 도안동 ***,,36.33187,127.37398,,2021-11-03,,,,,,I,2026-01-13,2022-04-28,대전광역시,서구,대전광역시_서구,centroid_fallback
강아지 미용실,366000004920210032,000,3660000,영업/정상,정상,1,0,0.0,"대전광역시 서구 도마로 **, ***호 (도마동)",35324.0,대전광역시 서구 도마동 **-*,,36.32269005456622,127.37395973783448,,2021-11-05,,,,,,I,2026-01-13,2024-10-30,대전광역시,서구,대전광역시_서구,ok
아가펫,366000004920220002,000,3660000,영업/정상,정상,1,0,0.0,"대전광역시 서구 계백로****번길 **, ***호 (정림동)",35395.0,대전광역시 서구 정림동 **-**,,36.30709758692363,127.367813166326,,2022-01-10,,,,,,I,2026-01-13,2022-04-28,대전광역시,서구,대전광역시_서구,ok
플러피펫,366000004920220007,000,3660000,영업/정상,정상,1,0,0.0,대전광역시 서구 만년로 **(만년동),35200.0,대전광역시 서구 만년동 ***,,36.33187,127.37398,,2022-05-20,,,,,,I,2026-01-13,2022-05-20,대전광역시,서구,대전광역시_서구,centroid_fallback
러브댕댕(LOVE DAENG DAENG),366000004920220008,000,3660000,영업/정상,정상,1,0,0.0,"대전광역시 서구 원도안로***번길 **-*, 자작나무 *층 (도안동)",35357.0,대전광역시 서구 도안동 **** 자작나무,,36.33187,127.37398,,2022-06-10,,,,,,I,2026-01-13,2022-06-10,대전광역시,서구,대전광역시_서구,centroid_fallback
다다살롱,366000004920220009,000,3660000,영업/정상,정상,1,0,0.0,"대전광역시 서구 둔산중로 **, 아르누보팰리스 지하 *층 B***호 (탄방동)",35260.0,대전광역시 서구 탄방동 *** 나비家 아르누보팰리스,,36.33187,127.37398,,2022-06-22,,,,,,I,2026-01-13,2022-06-22,대전광역시,서구,대전광역시_서구,centroid_fallback
트리밍박스,366000004920220011,000,3660000,영업/정상,정상,1,0,0.0,"대전광역시 서구 관저남로**번길 **-**, *층 (관저동)",35383.0,대전광역시 서구 관저동 ****-*,,36.29547481406869,127.33677098844548,042-822-2723,2022-07-22,,,,,,I,2026-01-13,2022-07-22,대전광역시,서구,대전광역시_서구,ok
예쁘개,366000004920220013,000,3660000,영업/정상,정상,1,0,0.0,"대전광역시 서구 갈마로***번길 **, ***호 (괴정동)",35294.0,대전광역시 서구 괴정동 **-*,,36.33484740482691,127.38232836074872,,2022-08-10,,,,,,I,2026-01-13,2025-08-25,대전광역시,서구,대전광역시_서구,ok
캐럿멍,366000004920220014,000,3660000,영업/정상,정상,1,0,0.0,"대전광역시 서구 도안남로 ***, ***호 (관저동)",35360.0,대전광역시 서구 관저동 ****,,36.33187,127.37398,,2022-08-26,,,,,,I,2026-01-13,2025-03-10,대전광역시,서구,대전광역시_서구,centroid_fallback
모노퍼피,366000004920220015,000,3660000,영업/정상,정상,1,0,0.0,"대전광역시 서구 갈마역로 **, ***-*호 (둔산동, 하이스트빌)",35230.0,대전광역시 서구 둔산동 **** 하이스트빌,,36.33187,127.37398,042-482-5003,2022-09-15,,,,,,I,2026-01-13,2022-09-15,대전광역시,서구,대전광역시_서구,centroid_fallback
청사펫살롱,366000004920220016,000,3660000,영업/정상,정상,1,0,0.0,"대전광역시 서구 한밭대로 ***, ***~***호 (월평동, 갤러리빌 럭스)",35220.0,대전광역시 서구 월평동 *** 갤러리빌 럭스,,36.33187,127.37398,,2022-09-23,,,,,,I,2026-01-13,2024-09-19,대전광역시,서구,대전광역시_서구,centroid_fallback
환해지개,366000004920220018,000,3660000,영업/정상,정상,1,0,0.0,"대전광역시 서구 남선로 **-**, ***호 (탄방동)",35255.0,대전광역시 서구 탄방동 ****,,36.33187,127.37398,,2022-10-31,,,,,,I,2026-01-13,2025-10-21,대전광역시,서구,대전광역시_서구,centroid_fallback
속전속견,366000004920220020,000,3660000,영업/정상,정상,1,0,0.0,"대전광역시 서구 도솔로***번길 *, ***호 (탄방동)",35253.0,대전광역시 서구 탄방동 **** ***호,,36.33187,127.37398,,2022-12-09,,,,,,I,2026-01-13,2024-09-09,대전광역시,서구,대전광역시_서구,centroid_fallback
퍼피엔젤 반려동물 미용실,366000004920230001,000,3660000,영업/정상,정상,1,0,0.0,"대전광역시 서구 갈마로 ***, *층 (내동)",35288.0,대전광역시 서구 내동 **-**,,36.33466230904134,127.38012686713412,,2023-01-11,,,,,,I,2026-01-13,2023-01-11,대전광역시,서구,대전광역시_서구,ok
봉봉애견,366000004920230002,000,3660000,영업/정상,정상,1,0,0.0,"대전광역시 서구 동서대로****번길 **, *층 (내동)",35315.0,대전광역시 서구 내동 **-**,,36.330268572255946,127.37961931971648,,2023-01-31,,,,,,I,2026-01-13,2023-02-01,대전광역시,서구,대전광역시_서구,ok
댕구르르,366000004920230004,000,3660000,영업/정상,정상,1,0,0.0,"대전광역시 서구 봉우로*번길 **, ***B호 (관저동)",35362.0,대전광역시 서구 관저동 ****,,36.33187,127.37398,,2023-03-07,,,,,,I,2026-01-13,2023-03-07,대전광역시,서구,대전광역시_서구,centroid_fallback
디어퍼피,366000004920230006,000,3660000,영업/정상,정상,1,0,0.0,"대전광역시 서구 용소로**번길 *, ***호 (도안동)",35369.0,대전광역시 서구 도안동 **** ***호,,36.33187,127.37398,,2023-03-20,,,,,,I,2026-01-13,2023-03-20,대전광역시,서구,대전광역시_서구,centroid_fallback
강아지 이발소,366000004920230007,000,3660000,영업/정상,정상,1,0,0.0,"대전광역시 서구 동서대로 ***, **동 ***호 (내동, 코오롱아파트)",35285.0,대전광역시 서구 내동 *** 코오롱아파트 **동 ***호,,36.33187,127.37398,,2023-04-12,,,,,,I,2026-01-13,2023-04-12,대전광역시,서구,대전광역시_서구,centroid_fallback
함께냥 대전점,366000004920230008,000,3660000,영업/정상,정상,1,0,0.0,"대전광역시 서구 봉우로**번길 **-**, ***호 (관저동)",35361.0,대전광역시 서구 관저동 **** ***호,,36.33187,127.37398,,2023-05-15,,,,,,I,2026-01-13,2023-05-15,대전광역시,서구,대전광역시_서구,centroid_fallback
샤인몽스,366000004920230009,000,3660000,영업/정상,정상,1,0,0.0,"대전광역시 서구 관저남로 *, ***호 (관저동)",35383.0,대전광역시 서구 관저동 ****-* ***호,,36.29510609814464,127.335748598537,,2023-05-17,,,,,,I,2026-01-13,2024-03-25,대전광역시,서구,대전광역시_서구,ok
댕댕이살롱,366000004920230010,000,3660000,영업/정상,정상,1,0,0.0,"대전광역시 서구 둔산남로***번길 **, ***호 (탄방동)",35252.0,대전광역시 서구 탄방동 **** ***호,,36.33187,127.37398,,2023-06-01,,,,,,I,2026-01-13,2023-06-01,대전광역시,서구,대전광역시_서구,centroid_fallback
워킹펫살롱,366000004920230011,000,3660000,영업/정상,정상,1,0,0.0,"대전광역시 서구 도안북로***번길 **, ***호 (도안동)",35350.0,대전광역시 서구 도안동 *** ***호,,36.33187,127.37398,,2023-09-26,,,,,,I,2026-01-13,2023-09-26,대전광역시,서구,대전광역시_서구,centroid_fallback
다다펫스파,366000004920230012,000,3660000,영업/정상,정상,1,0,0.0,"대전광역시 서구 둔산중로 **, 나비家 아르누보팰리스 b***호 (탄방동)",35260.0,"대전광역시 서구 탄방동 *** 나비家 아르누보팰리스, b***호",,36.33187,127.37398,,2023-11-09,,,,,,I,2026-01-13,2023-11-09,대전광역시,서구,대전광역시_서구,centroid_fallback
뽀송댕,366000004920240001,000,3660000,영업/정상,정상,1,0,0.0,"대전광역시 서구 대신*길 **, ***호 (도마동)",35400.0,대전광역시 서구 도마동 ***-** ***호,,36.31189393626259,127.3782661599436,,2024-01-23,,,,,,I,2026-01-13,2025-11-25,대전광역시,서구,대전광역시_서구,ok
오늘의개스트,366000004920240002,000,3660000,영업/정상,정상,1,0,0.0,대전광역시 서구 원도안로***번길 **-* (도안동),35354.0,대전광역시 서구 도안동 ****,,36.33187,127.37398,,2024-02-14,,,,,,I,2026-01-13,2024-02-14,대전광역시,서구,대전광역시_서구,centroid_fallback
기억할개,366000004920240003,000,3660000,영업/정상,정상,1,0,0.0,"대전광역시 서구 도솔로***번길 **, ***호 (가장동)",35296.0,대전광역시 서구 가장동 **-**,,36.335163663714255,127.38599961314137,,2024-03-28,,,,,,I,2026-01-13,2024-12-20,대전광역시,서구,대전광역시_서구,ok
솜방망이,366000004920240004,000,3660000,영업/정상,정상,1,0,0.0,"대전광역시 서구 원도안로 **, 지산프라자 ***호 (도안동)",35368.0,대전광역시 서구 도안동 **** 지산프라자,,36.33187,127.37398,,2024-04-18,,,,,,I,2026-01-13,2025-07-01,대전광역시,서구,대전광역시_서구,centroid_fallback
블랑퍼피 펫살롱,366000004920240005,000,3660000,영업/정상,정상,1,0,0.0,"대전광역시 서구 계룡로***번길 *, ***호 (둔산동, 갤러리빌*차)",35235.0,대전광역시 서구 둔산동 **** 갤러리빌*차,,36.33187,127.37398,,2024-05-01,,,,,,I,2026-01-13,2025-07-16,대전광역시,서구,대전광역시_서구,centroid_fallback
바울,366000004920240006,000,3660000,영업/정상,정상,1,0,0.0,대전광역시 서구 용문로 **-** (용문동),35303.0,대전광역시 서구 용문동 ***-**,,36.3362896480684,127.39233369394036,,2024-05-01,,,,,,I,2026-01-13,2024-05-01,대전광역시,서구,대전광역시_서구,ok
단정하개 애견미용실,366000004920240007,000,3660000,영업/정상,정상,1,0,0.0,"대전광역시 서구 복수남로**번길 **, 수정빌딩 ***호 (복수동)",35412.0,대전광역시 서구 복수동 *** 수정빌딩,,36.33187,127.37398,,2024-05-09,,,,,,I,2026-01-13,2024-05-09,대전광역시,서구,대전광역시_서구,centroid_fallback
허니도그,366000004920240008,000,3660000,영업/정상,정상,1,0,0.0,"대전광역시 서구 신갈마로 ***, ***호 (갈마동)",35276.0,대전광역시 서구 갈마동 ***-**,,36.35185910672765,127.36803956718155,,2024-05-13,,,,,,I,2026-01-13,2024-05-13,대전광역시,서구,대전광역시_서구,ok
프렌들리,366000004920240009,000,3660000,영업/정상,정상,1,0,0.0,"대전광역시 서구 도안남로 ***, ***호 (관저동)",35363.0,대전광역시 서구 관저동 ****,,36.33187,127.37398,,2024-05-29,,,,,,I,2026-01-13,2024-05-29,대전광역시,서구,대전광역시_서구,centroid_fallback
몽숲,366000004920240010,000,3660000,영업/정상,정상,1,0,0.0,"대전광역시 서구 관저로 **, ***호 (관저동)",35370.0,대전광역시 서구 관저동 ****-*,,36.29654639506414,127.32605225038644,,2024-05-29,,,,,,I,2026-01-13,2024-05-29,대전광역시,서구,대전광역시_서구,ok
왈왈그루밍,366000004920240011,000,3660000,영업/정상,정상,1,0,0.0,"대전광역시 서구 탄방로 **, ***호 (탄방동)",35264.0,대전광역시 서구 탄방동 **-**,,36.34143207953376,127.3936394359936,,2024-06-07,,,,,,I,2026-01-13,2024-06-07,대전광역시,서구,대전광역시_서구,ok
댕댕댕그루밍,366000004920240012,000,3660000,영업/정상,정상,1,0,0.0,대전광역시 서구 정림로 **-* (정림동),35399.0,대전광역시 서구 정림동 ***,,36.33187,127.37398,,2024-08-02,,,,,,I,2026-01-13,2024-08-02,대전광역시,서구,대전광역시_서구,centroid_fallback
몽뜰리에,366000004920240013,000,3660000,영업/정상,정상,1,0,0.0,"대전광역시 서구 괴정로 *, *동 *층 (괴정동)",35290.0,대전광역시 서구 괴정동 ***-**,,36.33974397883934,127.37505242600515,,2024-09-04,,,,,,I,2026-01-13,2024-09-04,대전광역시,서구,대전광역시_서구,ok
Elodie dog,366000004920240014,000,3660000,영업/정상,정상,1,0,0.0,"대전광역시 서구 동서대로 ***, ***호 (도안동)",35350.0,대전광역시 서구 도안동 ***,,36.33187,127.37398,,2024-09-23,,,,,,I,2026-01-13,2024-09-23,대전광역시,서구,대전광역시_서구,centroid_fallback
묭데이,366000004920240015,000,3660000,영업/정상,정상,1,0,0.0,"대전광역시 서구 갈마중로**번길 **, *층 (갈마동)",35272.0,대전광역시 서구 갈마동 ***-*,,36.346839364775136,127.372311829856,,2024-09-27,,,,,,I,2026-01-13,2024-09-27,대전광역시,서구,대전광역시_서구,ok
댕구름,366000004920240016,000,3660000,영업/정상,정상,1,0,0.0,"대전광역시 서구 문정로***번길 ***, ***호 (둔산동)",35250.0,대전광역시 서구 둔산동 ****,,36.33187,127.37398,,2024-09-30,,,,,,I,2026-01-13,2024-09-30,대전광역시,서구,대전광역시_서구,centroid_fallback
우드멍,366000004920240017,000,3660000,영업/정상,정상,1,0,0.0,"대전광역시 서구 관저동로 **, 관저빌딩 ***호 (관저동)",35379.0,대전광역시 서구 관저동 **** 관저빌딩,,36.33187,127.37398,,2024-10-22,,,,,,I,2026-01-13,2024-10-23,대전광역시,서구,대전광역시_서구,centroid_fallback
멍발머리,366000004920240018,000,3660000,영업/정상,정상,1,0,0.0,"대전광역시 서구 가수원로 ***, *호동 ***호 (가수원동, 은아아파트*단지)",35386.0,대전광역시 서구 가수원동 *** 은아아파트*단지,,36.33187,127.37398,,2024-11-01,,,,,,I,2026-01-13,2024-11-01,대전광역시,서구,대전광역시_서구,centroid_fallback
냥만미용실,366000004920240019,000,3660000,영업/정상,정상,1,0,0.0,"대전광역시 서구 도산로***번길 **, *층 (용문동)",35301.0,대전광역시 서구 용문동 ***-*,,36.33681347027135,127.38762784780457,,2024-11-21,,,,,,I,2026-01-13,2024-11-21,대전광역시,서구,대전광역시_서구,ok
오세요 댕댕이,366000004920240020,000,3660000,영업/정상,정상,1,0,0.0,"대전광역시 서구 계룡로***번길 **, *층 (탄방동)",35257.0,대전광역시 서구 탄방동 **-**,,36.34372303032602,127.39351695093764,,2024-12-09,,,,,,I,2026-01-13,2024-12-09,대전광역시,서구,대전광역시_서구,ok
"안녕, 애기",366000004920240021,000,3660000,영업/정상,정상,1,0,0.0,"대전광역시 서구 신갈마로***번길 **, ***호 (갈마동)",35281.0,대전광역시 서구 갈마동 ***-**,,36.3439504387428,127.36698970782872,,2024-12-17,,,,,,I,2026-01-13,2024-12-17,대전광역시,서구,대전광역시_서구,ok
바우와우 하우스,366000004920240022,000,3660000,영업/정상,정상,1,0,0.0,대전광역시 서구 월평서로 * (월평동),35225.0,대전광역시 서구 월평동 ****,,36.33187,127.37398,042-488-3303,2024-12-24,,,,,,I,2026-01-13,2024-12-24,대전광역시,서구,대전광역시_서구,centroid_fallback
멍멍샵,366000004920240023,000,3660000,영업/정상,정상,1,0,0.0,"대전광역시 서구 문정로*번길 ***, ***호 (탄방동, 시티빌*차)",35262.0,대전광역시 서구 탄방동 *** 시티빌*차,,36.33187,127.37398,,2024-12-30,,,,,,I,2026-01-13,2024-12-30,대전광역시,서구,대전광역시_서구,centroid_fallback
오숑,366000004920250001,000,3660000,영업/정상,정상,1,0,0.0,"대전광역시 서구 도안북로***번길 **, ***호 (도안동)",35351.0,대전광역시 서구 도안동 ***,,36.33187,127.37398,,2025-02-21,,,,,,I,2026-01-13,2025-08-22,대전광역시,서구,대전광역시_서구,centroid_fallback
묘은,366000004920250002,000,3660000,영업/정상,정상,1,0,0.0,"대전광역시 서구 유등로**번길 *-*, 나이테상가 *층 (복수동)",35415.0,대전광역시 서구 복수동 *** 나이테주택,,36.33187,127.37398,,2025-04-25,,,,,,I,2026-01-13,2025-07-25,대전광역시,서구,대전광역시_서구,centroid_fallback
댕댕이지,366000004920250003,000,3660000,영업/정상,정상,1,0,0.0,"대전광역시 서구 관저북로**번길 *-**, ***호 (관저동)",35360.0,대전광역시 서구 관저동 ****,,36.33187,127.37398,,2025-05-19,,,,,,I,2026-01-13,2025-05-19,대전광역시,서구,대전광역시_서구,centroid_fallback
귀엽댕,366000004920250004,000,3660000,영업/정상,정상,1,0,0.0,"대전광역시 서구 대덕대로 ***, ***동 ***호 (갈마동, 큰마을아파트)",35265.0,대전광역시 서구 갈마동 **** 큰마을아파트,,36.33187,127.37398,,2025-05-28,,,,,,I,2026-01-13,2025-05-28,대전광역시,서구,대전광역시_서구,centroid_fallback
개웃기는 세상,366000004920250005,000,3660000,영업/정상,정상,1,0,0.0,"대전광역시 서구 계룡로***번길 **, ***호 (탄방동)",35264.0,대전광역시 서구 탄방동 **-**,,36.34087411274536,127.39398951272118,,2025-06-10,,,,,,I,2026-01-13,2025-06-10,대전광역시,서구,대전광역시_서구,ok
헬로제이,366000004920250006,000,3660000,영업/정상,정상,1,0,0.0,"대전광역시 서구 도안중로***번길 **, ***호 (도안동)",35353.0,대전광역시 서구 도안동 ****,,36.33187,127.37398,,2025-07-11,,,,,,I,2026-01-13,2025-07-11,대전광역시,서구,대전광역시_서구,centroid_fallback
도미에르펫 미용,366000004920250007,000,3660000,영업/정상,정상,1,0,0.0,"대전광역시 서구 문정로***번길 **, ***호 (탄방동)",35256.0,대전광역시 서구 탄방동 ***,,36.33187,127.37398,042-488-0869,2025-08-11,,,,,,I,2026-01-13,2025-08-11,대전광역시,서구,대전광역시_서구,centroid_fallback
힐링몽,366000004920250008,000,3660000,영업/정상,정상,1,0,0.0,"대전광역시 서구 둔산로 **-**, *층 (둔산동)",35230.0,대전광역시 서구 둔산동 ****,,36.33187,127.37398,,2025-08-13,,,,,,I,2026-01-13,2025-09-17,대전광역시,서구,대전광역시_서구,centroid_fallback
멍뽀송,366000004920250009,000,3660000,영업/정상,정상,1,0,0.0,"대전광역시 서구 갈마중로**번길 **, ****호 (갈마동)",35272.0,대전광역시 서구 갈마동 ***-**,,36.34673634773076,127.37271431965776,,2025-08-19,,,,,,I,2026-01-13,2025-08-19,대전광역시,서구,대전광역시_서구,ok
댕스타일,366000004920250010,000,3660000,영업/정상,정상,1,0,0.0,"대전광역시 서구 월평로 **, *층 (월평동)",35223.0,대전광역시 서구 월평동 ***,,36.33187,127.37398,,2025-10-14,,,,,,I,2026-01-13,2025-10-14,대전광역시,서구,대전광역시_서구,centroid_fallback
하얀강아지 (괴정점),366000004920250011,000,3660000,영업/정상,정상,1,0,0.0,"대전광역시 서구 괴정로 ***, 럭셔리빌 ***호 (괴정동)",35269.0,대전광역시 서구 괴정동 **-* 럭셔리빌,,36.338547325020784,127.3847186949115,,2025-10-24,,,,,,I,2026-01-13,2025-10-24,대전광역시,서구,대전광역시_서구,ok
펫살롱 도도,366000004920250012,000,3660000,영업/정상,정상,1,0,0.0,대전광역시 서구 월평로**번길 ** (월평동),35224.0,대전광역시 서구 월평동 ***,,36.33187,127.37398,,2025-11-12,,,,,,I,2026-01-13,2025-11-12,대전광역시,서구,대전광역시_서구,centroid_fallback
밥멍냥,366000004920250013,000,3660000,영업/정상,정상,1,0,0.0,"대전광역시 서구 가장로 ***, 달리상가동 지하*층 *호 (가장동, 삼성 래미안아파트)",35297.0,대전광역시 서구 가장동 ** 삼성 래미안아파트,,36.33187,127.37398,,2025-11-14,,,,,,I,2026-01-13,2025-11-14,대전광역시,서구,대전광역시_서구,centroid_fallback
신성동물병원,367000004920180009,000,3670000,영업/정상,정상,1,0,0.0,"대전광역시 유성구 신성로**번길 **, ***호 (신성동)",34117.0,대전광역시 유성구 신성동 ***-** ***호,,36.38798299283918,127.34863450124382,042-863-0700,2018-05-04,,,,,,I,2026-01-13,2022-04-28,대전광역시,유성구,대전광역시_유성구,ok
예담동물병원,367000004920180014,000,3670000,영업/정상,정상,1,0,0.0,대전광역시 유성구 원신흥로**번길 *-* (원신흥동),34193.0,대전광역시 유성구 원신흥동 ***-*,,36.33858045677217,127.3422858342343,042-822-5071,2018-08-01,,,,,,I,2026-01-13,2022-04-28,대전광역시,유성구,대전광역시_유성구,ok
조은동물병원,367000004920180017,000,3670000,영업/정상,정상,1,0,0.0,대전광역시 유성구 엑스포로 *** (전민동),34052.0,대전광역시 유성구 전민동 ***-*,,36.397308261341365,127.4045766751945,042-867-7588,2018-08-01,,,,,,I,2026-01-13,2022-04-28,대전광역시,유성구,대전광역시_유성구,ok
더 이쁘개,367000004920180019,000,3670000,영업/정상,정상,1,0,0.0,대전광역시 유성구 유성대로 **** (전민동),34052.0,대전광역시 유성구 전민동 ***-*,,36.39938288308519,127.40138755910012,042-863-5666,2018-08-08,,,,,,I,2026-01-13,2022-04-28,대전광역시,유성구,대전광역시_유성구,ok
수다펫,367000004920180021,000,3670000,영업/정상,정상,1,0,0.0,"대전광역시 유성구 봉산로 **, ***호 (송강동)",34009.0,대전광역시 유성구 송강동 ***-*,,36.434420321395976,127.38747653010344,,2018-08-14,,,,,,I,2026-01-13,2022-04-28,대전광역시,유성구,대전광역시_유성구,ok
송강동물병원,367000004920180023,000,3670000,영업/정상,정상,1,0,0.0,대전광역시 유성구 구즉로**번길 ** (송강동),34009.0,대전광역시 유성구 송강동 ***-*,,36.432766874087584,127.38750161771236,042-934-7588,2018-08-14,,,,,,I,2026-01-13,2022-04-28,대전광역시,유성구,대전광역시_유성구,ok
수사랑 동물병원,367000004920180026,000,3670000,영업/정상,정상,1,0,0.0,대전광역시 유성구 노은서로***번길 ** (노은동),34089.0,대전광역시 유성구 노은동 ***-**,,36.36970213711881,127.31741765843954,042-477-0882,2018-08-30,,,,,,I,2026-01-13,2022-04-28,대전광역시,유성구,대전광역시_유성구,ok
한밭 동물병원,367000004920180043,000,3670000,영업/정상,정상,1,0,0.0,대전광역시 유성구 봉산로*번길 * (봉산동),34007.0,대전광역시 유성구 봉산동 ***-*,,36.434732479016425,127.38877038004608,042-931-1187,2018-09-20,,,,,,I,2026-01-13,2022-04-28,대전광역시,유성구,대전광역시_유성구,ok
똥싼 강아지,367000004920180047,000,3670000,영업/정상,정상,1,0,0.0,대전광역시 유성구 장대로 **-* (장대동),34172.0,대전광역시 유성구 장대동 ***-*,,36.35942065597633,127.33600092737026,042-823-9797,2018-09-21,,,,,,I,2026-01-13,2022-04-28,대전광역시,유성구,대전광역시_유성구,ok
프리티 야멍,367000004920180049,000,3670000,영업/정상,정상,1,0,0.0,대전광역시 유성구 북유성대로 *** (반석동),34063.0,대전광역시 유성구 반석동 ***-*,,36.393944859067865,127.31405427906452,042-823-0059,2018-09-21,,,,,,I,2026-01-13,2022-04-28,대전광역시,유성구,대전광역시_유성구,ok
해바라기 애견,367000004920180052,000,3670000,영업/정상,정상,1,0,0.0,대전광역시 유성구 장대로 ** (장대동),34172.0,대전광역시 유성구 장대동 ***-*,,36.35824374786591,127.3361925276253,048-825-8230,2018-09-21,,,,,,I,2026-01-13,2022-04-28,대전광역시,유성구,대전광역시_유성구,ok
강아지분양 더펫,367000004920180054,L00,3670000,영업/정상,정상,1,0,0.0,대전광역시 유성구 온천동로 ** (봉명동),34185.0,대전광역시 유성구 봉명동 ***-*,,36.357242477383245,127.3533035565005,042-824-7444,2018-10-01,,,,,,I,2026-01-13,2024-09-03,대전광역시,유성구,대전광역시_유성구,ok
젤리즈펫,367000004920180057,000,3670000,영업/정상,정상,1,0,0.0,"대전광역시 유성구 원신흥남로**번길 *-*, ***호 (원신흥동)",34195.0,대전광역시 유성구 원신흥동 ***-**,,36.33562527884901,127.33866937414582,070-8286-3780,2018-10-01,,,,,,I,2026-01-13,2024-12-27,대전광역시,유성구,대전광역시_유성구,ok
그레이 동물병원,367000004920180058,000,3670000,영업/정상,정상,1,0,0.0,"대전광역시 유성구 노은로 ***, 계룡프라자 ***호 (지족동)",34086.0,대전광역시 유성구 지족동 ***-* 계룡프라자,,36.37447192292296,127.31842124576691,042-719-8275,2018-10-01,,,,,,I,2026-01-13,2022-04-28,대전광역시,유성구,대전광역시_유성구,ok
헤이독,367000004920180061,000,3670000,영업/정상,정상,1,0,0.0,대전광역시 유성구 죽동로***번길 ** (죽동),34127.0,대전광역시 유성구 죽동 ***-*,,36.37143104708776,127.33821498485376,042-822-2277,2018-10-11,,,,,,I,2026-01-13,2022-04-28,대전광역시,유성구,대전광역시_유성구,ok
퍼니펫 애견 미용실,367000004920180065,000,3670000,영업/정상,정상,1,0,0.0,대전광역시 유성구 농대로 * (어은동),34139.0,대전광역시 유성구 어은동 ***-*,,36.36099969872952,127.35379412774977,042-862-7588,2018-10-15,,,,,,I,2026-01-13,2022-04-28,대전광역시,유성구,대전광역시_유성구,ok
놀자멍멍아(놀멍),367000004920180066,000,3670000,영업/정상,정상,1,0,0.0,대전광역시 유성구 원신흥로**번길 **-** (원신흥동),34193.0,대전광역시 유성구 원신흥동 ***-*,,36.34070593008537,127.34345771613464,,2018-10-15,,,,,,I,2026-01-13,2024-03-06,대전광역시,유성구,대전광역시_유성구,ok
펫 프렌즈,367000004920180070,000,3670000,영업/정상,정상,1,0,0.0,대전광역시 유성구 북유성대로 *** (하기동),34098.0,대전광역시 유성구 하기동 ***,,36.36854,127.34122,042-826-7550,2018-10-19,,,,,,I,2026-01-13,2022-04-28,대전광역시,유성구,대전광역시_유성구,centroid_fallback
꿈꾸는 강아지,367000004920180073,000,3670000,영업/정상,정상,1,0,0.0,"대전광역시 유성구 원신흥로**번길 **, *층 (원신흥동)",34195.0,대전광역시 유성구 원신흥동 ***-*,,36.33785023005353,127.34142026228656,042-524-0779,2018-11-01,,,,,,I,2026-01-13,2023-03-20,대전광역시,유성구,대전광역시_유성구,ok
펫츠마트,367000004920180075,000,3670000,영업/정상,정상,1,0,0.0,"대전광역시 유성구 원신흥남로**번길 **-**, 청담빌 (원신흥동)",34195.0,대전광역시 유성구 원신흥동 ***-* 청담빌,,36.33542972900356,127.3395372613656,,2018-12-12,,,,,,I,2026-01-13,2022-04-28,대전광역시,유성구,대전광역시_유성구,ok
마음펫 살롱,367000004920190001,000,3670000,영업/정상,정상,1,0,0.0,대전광역시 유성구 월드컵대로***번길 ** (구암동),34182.0,대전광역시 유성구 구암동 ***-**,,36.35114594832289,127.33167935412168,,2019-01-02,,,,,,I,2026-01-13,2025-04-10,대전광역시,유성구,대전광역시_유성구,ok
멍 때리지마,367000004920190004,000,3670000,영업/정상,정상,1,0,0.0,대전광역시 유성구 원내로 ** (원내동),34227.0,대전광역시 유성구 원내동 ***-**,,36.3000580625339,127.3192596951972,,2019-02-08,,,,,,I,2026-01-13,2022-04-28,대전광역시,유성구,대전광역시_유성구,ok
개 웃는날,367000004920190008,000,3670000,영업/정상,정상,1,0,0.0,대전광역시 유성구 진잠로**번길 ** (원내동),34230.0,대전광역시 유성구 원내동 ***-*,,36.29914966701171,127.31922898668346,,2019-03-06,,,,,,I,2026-01-13,2022-04-28,대전광역시,유성구,대전광역시_유성구,ok
로얄도그,367000004920190009,000,3670000,영업/정상,정상,1,0,0.0,"대전광역시 유성구 반석동로 **, ***호 (반석동)",34068.0,대전광역시 유성구 반석동 ***-*,,36.3925196085208,127.31166041790443,,2019-03-20,,,,,,I,2026-01-13,2022-04-28,대전광역시,유성구,대전광역시_유성구,ok
펫 뮤지엄,367000004920190010,000,3670000,영업/정상,정상,1,0,0.0,"대전광역시 유성구 은구비남로 **, *층 ***호 (지족동, SK허브)",34087.0,대전광역시 유성구 지족동 ***-* SK허브 *동 ***호,,36.37254387845106,127.31705796335731,,2019-03-25,,,,,,I,2026-01-13,2022-04-28,대전광역시,유성구,대전광역시_유성구,ok
개미녀's,367000004920190012,000,3670000,영업/정상,정상,1,0,0.0,"대전광역시 유성구 계룡로**번길 **, ***호 (봉명동, 유성세움펠리피아 주상복합아파트)",34178.0,대전광역시 유성구 봉명동 ***-* 유성세움펠리피아 주상복합아파트 ***호,,36.35447622709079,127.3368449860807,,2019-03-25,,,,,,I,2026-01-13,2022-04-28,대전광역시,유성구,대전광역시_유성구,ok
지아 애견샵,367000004920190014,000,3670000,영업/정상,정상,1,0,0.0,"대전광역시 유성구 죽동로***번길 *-*, ***호 (죽동)",34127.0,대전광역시 유성구 죽동 ***-* ***호,,36.37122749153173,127.33858546818884,,2019-04-18,,,,,,I,2026-01-13,2025-07-08,대전광역시,유성구,대전광역시_유성구,ok
유니펫마트,367000004920190018,000,3670000,영업/정상,정상,1,0,0.0,"대전광역시 유성구 학하남로 **, *층 (계산동)",34208.0,대전광역시 유성구 계산동 ***,,36.36854,127.34122,,2019-08-05,,,,,,I,2026-01-13,2022-04-28,대전광역시,유성구,대전광역시_유성구,centroid_fallback
숑사탕,367000004920190019,000,3670000,영업/정상,정상,1,0,0.0,"대전광역시 유성구 현충원로 ***, *층 (구암동)",34144.0,대전광역시 유성구 구암동 ***-*,,36.35953386187549,127.3165553538396,,2019-09-09,,,,,,I,2026-01-13,2022-04-28,대전광역시,유성구,대전광역시_유성구,ok
더 빛나개,367000004920200004,000,3670000,영업/정상,정상,1,0,0.0,"대전광역시 유성구 노은서로***번길 ***, *층 ***호 (노은동)",34089.0,대전광역시 유성구 노은동 ***-*,,36.3719993202623,127.31645527664551,,2020-02-07,,,,,,I,2026-01-13,2022-04-28,대전광역시,유성구,대전광역시_유성구,ok
몽주르,367000004920200007,000,3670000,영업/정상,정상,1,0,0.0,"대전광역시 유성구 원신흥남로**번길 **-**, 더행복 ***호 (원신흥동)",34194.0,대전광역시 유성구 원신흥동 ***-* 더행복 ***호,,36.33540435422197,127.33666812087944,,2020-03-10,,,,,,I,2026-01-13,2022-12-27,대전광역시,유성구,대전광역시_유성구,ok
치즈(CHI'z),367000004920200010,000,3670000,영업/정상,정상,1,0,0.0,"대전광역시 유성구 원신흥로**번길 **-**, ***호호 (원신흥동)",34193.0,대전광역시 유성구 원신흥동 ***-*,,36.33986789409748,127.343402783751,,2020-04-02,,,,,,I,2026-01-13,2022-04-28,대전광역시,유성구,대전광역시_유성구,ok
멍뭉이 이발소,367000004920200011,000,3670000,영업/정상,정상,1,0,0.0,"대전광역시 유성구 반석로**번길 **, *층 ***호 (반석동)",34068.0,대전광역시 유성구 반석동 ***-* ***호,,36.39070075962553,127.3134420869103,,2020-04-09,,,,,,I,2026-01-13,2022-04-28,대전광역시,유성구,대전광역시_유성구,ok
쥬니애견,367000004920200012,000,3670000,영업/정상,정상,1,0,0.0,"대전광역시 유성구 신성남로**번길 **, *층 (신성동)",34116.0,대전광역시 유성구 신성동 ***-**,,36.38813363801831,127.3501375613586,,2020-04-09,,,,,,I,2026-01-13,2022-04-28,대전광역시,유성구,대전광역시_유성구,ok
몽구,367000004920200013,000,3670000,영업/정상,정상,1,0,0.0,"대전광역시 유성구 복용동로 ***, *층 (복용동)",34202.0,대전광역시 유성구 복용동 *,,36.36854,127.34122,,2020-04-27,,,,,,I,2026-01-13,2022-04-28,대전광역시,유성구,대전광역시_유성구,centroid_fallback
레드카펫,367000004920200016,000,3670000,영업/정상,정상,1,0,0.0,"대전광역시 유성구 반석로 **-**, *층 (반석동)",34070.0,대전광역시 유성구 반석동 ***-**,,36.39009247486555,127.3088443038026,,2020-05-19,,,,,,I,2026-01-15,2026-01-14,대전광역시,유성구,대전광역시_유성구,ok
올리브독,367000004920200022,000,3670000,영업/정상,정상,1,0,0.0,"대전광역시 유성구 도안대로***번길 *, 유성낙원교회 *층 (봉명동)",34180.0,대전광역시 유성구 봉명동 ***-** 유성낙원교회,,36.349215102285335,127.33960854340914,,2020-08-26,,,,,,I,2026-01-13,2022-04-28,대전광역시,유성구,대전광역시_유성구,ok
뽀삐네미장원,367000004920200024,000,3670000,영업/정상,정상,1,0,0.0,"대전광역시 유성구 송강로**번길 **, 상가*동 *층 ***호 (송강동, 청솔아파트)",34008.0,대전광역시 유성구 송강동 *-* 청솔아파트 상가동 ***호,,36.43561697834805,127.3825947763622,,2020-09-09,,,,,,I,2026-01-13,2022-04-28,대전광역시,유성구,대전광역시_유성구,ok
쇼펫,367000004920200033,000,3670000,영업/정상,정상,1,0,0.0,"대전광역시 유성구 봉명서로 **-*, ***호 (봉명동)",34190.0,대전광역시 유성구 봉명동 ****-* ***호,,36.3443633928375,127.34139661868618,,2020-12-15,,,,,,I,2026-01-13,2025-06-02,대전광역시,유성구,대전광역시_유성구,ok
봉산동 강아지,367000004920200034,000,3670000,영업/정상,정상,1,0,0.0,"대전광역시 유성구 구즉로**번길 **-**, *층 (송강동)",34009.0,대전광역시 유성구 송강동 **-*,,36.43470329864052,127.38706794282264,,2020-12-31,,,,,,I,2026-01-13,2022-04-28,대전광역시,유성구,대전광역시_유성구,ok
강아지풀 애견,367000004920210001,000,3670000,영업/정상,정상,1,0,0.0,"대전광역시 유성구 유성대로***번길 ***, *층 (봉명동)",34178.0,대전광역시 유성구 봉명동 ***-**,,36.3527275019225,127.336959439394,042-331-3535,2021-01-20,,,,,,I,2026-01-13,2022-04-28,대전광역시,유성구,대전광역시_유성구,ok
흰둥아 놀자,367000004920210002,000,3670000,영업/정상,정상,1,0,0.0,"대전광역시 유성구 계룡로**번길 **, *층 (구암동)",34176.0,대전광역시 유성구 구암동 ***-*,,36.35296907930161,127.332389267182,042-826-0799,2021-01-20,,,,,,I,2026-01-13,2023-12-04,대전광역시,유성구,대전광역시_유성구,ok
펫어스,367000004920210004,000,3670000,영업/정상,정상,1,0,0.0,"대전광역시 유성구 죽동로***번길 **, 파인빌 *층 ***호 (죽동)",34127.0,대전광역시 유성구 죽동 ***-* 파인빌 ***호,,36.370544900509245,127.3366876240479,,2021-03-21,,,,,,I,2026-01-13,2023-02-22,대전광역시,유성구,대전광역시_유성구,ok
다원 폣 스킨코트(PET.skincoat),367000004920210006,000,3670000,영업/정상,정상,1,0,0.0,"대전광역시 유성구 원내로**번길 **, 다원축산동물병원 *층 (원내동)",34227.0,대전광역시 유성구 원내동 ***-* 다원축산동물병원,,36.30085981234886,127.321329351939,042-544-4311,2021-03-24,,,,,,I,2026-01-13,2022-04-28,대전광역시,유성구,대전광역시_유성구,ok
벨리몽,367000004920210007,000,3670000,영업/정상,정상,1,0,0.0,"대전광역시 유성구 노은서로***번길 ***, 위너스빌 ***호 (노은동)",34089.0,대전광역시 유성구 노은동 ***-* 위너스빌 ***호,,36.372000295357545,127.31606464935078,,2021-05-27,,,,,,I,2026-01-13,2022-04-28,대전광역시,유성구,대전광역시_유성구,ok
반야시스터,367000004920210008,000,3670000,영업/정상,정상,1,0,0.0,"대전광역시 유성구 봉명서로 **-*, *층 (봉명동)",34190.0,대전광역시 유성구 봉명동 ****-*,,36.348038323025214,127.34154569249158,,2021-05-27,,,,,,I,2026-01-13,2024-12-12,대전광역시,유성구,대전광역시_유성구,ok
프랑소와펫 신세계대전점,367000004920210011,000,3670000,영업/정상,정상,1,0,0.0,"대전광역시 유성구 엑스포로 *, 신세계백화점 *층 (도룡동)",34126.0,대전광역시 유성구 도룡동 *-*,,36.37736208538295,127.38431444957502,042-719-3077,2021-08-27,,,,,,I,2026-01-13,2022-04-28,대전광역시,유성구,대전광역시_유성구,ok
블링블링하개,367000004920210013,000,3670000,영업/정상,정상,1,0,0.0,"대전광역시 유성구 엑스포로***번길 **, *층 ***호 (도룡동, 도룡코아루스마트리치오피스텔)",34125.0,대전광역시 유성구 도룡동 *-* 도룡코아루스마트리치오피스텔 ***호,,36.37615719717652,127.39398130025911,,2021-09-30,,,,,,I,2026-01-13,2022-04-28,대전광역시,유성구,대전광역시_유성구,ok
아이케어동물병원,367000004920210014,000,3670000,영업/정상,정상,1,0,0.0,"대전광역시 유성구 엑스포로***번길 **, *층 (문지동)",34050.0,대전광역시 유성구 문지동 ***-*,,36.39606161487591,127.40731570984435,042-710-7975,2021-10-12,,,,,,I,2026-01-13,2022-04-28,대전광역시,유성구,대전광역시_유성구,ok
미용하고 가개,367000004920210019,000,3670000,영업/정상,정상,1,0,0.0,"대전광역시 유성구 송강로 *, *층 ***호 (송강동)",34009.0,대전광역시 유성구 송강동 ***-* ***호,,36.43236920659387,127.38712828886784,042-369-4656,2021-11-10,,,,,,I,2026-01-13,2022-04-28,대전광역시,유성구,대전광역시_유성구,ok
강아지공작소,367000004920210020,000,3670000,영업/정상,정상,1,0,0.0,"대전광역시 유성구 계룡로**번길 **-**, *층 ***호 (구암동)",34176.0,대전광역시 유성구 구암동 ***-** ***호,,36.354508579009206,127.3322631304364,,2021-11-18,,,,,,I,2026-01-13,2022-04-28,대전광역시,유성구,대전광역시_유성구,ok
몽그레,367000004920220007,000,3670000,영업/정상,정상,1,0,0.0,"대전광역시 유성구 학하서로**번길 **, *층 ***호 (계산동)",34208.0,대전광역시 유성구 계산동 ***-* ***호,,36.34153455489032,127.30160998546542,,2022-04-12,,,,,,I,2026-01-13,2023-10-20,대전광역시,유성구,대전광역시_유성구,ok
꾸며줄개,367000004920220008,000,3670000,영업/정상,정상,1,0,0.0,"대전광역시 유성구 원신흥로**번길 *-**, *층 (원신흥동)",34193.0,대전광역시 유성구 원신흥동 ***-**,,36.33917848505178,127.34314928427098,,2022-04-14,,,,,,I,2026-01-13,2022-04-28,대전광역시,유성구,대전광역시_유성구,ok
애니멀즈,367000004920220009,000,3670000,영업/정상,정상,1,0,0.0,대전광역시 유성구 온천북로 **(봉명동),34185.0,대전광역시 유성구 봉명동 ***-*,,36.357066518464485,127.34635133800346,042-824-8885,2022-06-16,,,,,,I,2026-01-13,2022-06-16,대전광역시,유성구,대전광역시_유성구,ok
이쁘냥 고양이미용실 대전점,367000004920220010,000,3670000,영업/정상,정상,1,0,0.0,"대전광역시 유성구 현충원로***번길 **, *층 (구암동)",34144.0,대전광역시 유성구 구암동 ***-*,,36.36094448946006,127.30687399101735,,2022-06-27,,,,,,I,2026-01-13,2022-06-27,대전광역시,유성구,대전광역시_유성구,ok
몽그라미,367000004920220011,000,3670000,영업/정상,정상,1,0,0.0,"대전광역시 유성구 계룡로**번길 **, *층 (봉명동)",34178.0,대전광역시 유성구 봉명동 ***-*,,36.35219418729562,127.33803478365884,,2022-10-27,,,,,,I,2026-01-13,2023-12-04,대전광역시,유성구,대전광역시_유성구,ok
러버몽,367000004920230001,000,3670000,영업/정상,정상,1,0,0.0,"대전광역시 유성구 온천북로**번길 **-**, *층 (봉명동)",34185.0,대전광역시 유성구 봉명동 ***-*,,36.35771812636772,127.34870203389656,,2023-01-10,,,,,,I,2026-01-13,2023-01-10,대전광역시,유성구,대전광역시_유성구,ok
체인지펫미용,367000004920230003,000,3670000,영업/정상,정상,1,0,0.0,"대전광역시 유성구 반석로 **, 상가동 *층 ***호 (반석동, 반석마을*단지)",34069.0,대전광역시 유성구 반석동 *** 반석마을*단지,,36.36854,127.34122,,2023-02-22,,,,,,I,2026-01-13,2023-02-22,대전광역시,유성구,대전광역시_유성구,centroid_fallback
숲멍,367000004920230004,000,3670000,영업/정상,정상,1,0,0.0,"대전광역시 유성구 상대동로 **, *층 (상대동)",34199.0,대전광역시 유성구 상대동 ***-*,,36.347314799346265,127.33915656057891,,2023-04-11,,,,,,I,2026-01-13,2025-01-02,대전광역시,유성구,대전광역시_유성구,ok
하이 꼬야,367000004920230005,000,3670000,영업/정상,정상,1,0,0.0,대전광역시 유성구 박산로 ** (구암동),34156.0,대전광역시 유성구 구암동 ***-*,,36.35395088367937,127.31889756890943,,2023-06-22,,,,,,I,2026-01-13,2023-06-22,대전광역시,유성구,대전광역시_유성구,ok
계절엔동물의료센터 미용실,367000004920230007,000,3670000,영업/정상,정상,1,0,0.0,"대전광역시 유성구 테크노*로 **-**, ***호 (관평동)",34016.0,대전광역시 유성구 관평동 ****,,36.36854,127.34122,,2023-09-08,,,,,,I,2026-01-13,2023-09-08,대전광역시,유성구,대전광역시_유성구,centroid_fallback
만족하개,367000004920230008,000,3670000,영업/정상,정상,1,0,0.0,"대전광역시 유성구 학하중앙로 ***, ***호 (계산동)",34209.0,대전광역시 유성구 계산동 ***-**,,36.34162738605559,127.30516206670536,,2023-10-16,,,,,,I,2026-01-13,2023-10-16,대전광역시,유성구,대전광역시_유성구,ok
아이몽,367000004920230009,000,3670000,영업/정상,정상,1,0,0.0,"대전광역시 유성구 상대동로**번길 **, *층 (상대동)",34199.0,대전광역시 유성구 상대동 ***-*,,36.34782564299761,127.3391588941347,,2023-12-26,,,,,,I,2026-01-13,2023-12-26,대전광역시,유성구,대전광역시_유성구,ok
코코펫살롱&호텔,367000004920240001,000,3670000,영업/정상,정상,1,0,0.0,대전광역시 유성구 복용동로 ***-** (복용동),34202.0,대전광역시 유성구 복용동 ***,,36.36854,127.34122,,2024-01-19,,,,,,I,2026-01-13,2024-05-03,대전광역시,유성구,대전광역시_유성구,centroid_fallback
테크노웰 동물병원,367000004920240003,000,3670000,영업/정상,정상,1,0,0.0,대전광역시 유성구 관들*길 ** (관평동),34017.0,대전광역시 유성구 관평동 ***,,36.36854,127.34122,042-931-0963,2024-06-03,,,,,,I,2026-01-13,2024-06-03,대전광역시,유성구,대전광역시_유성구,centroid_fallback
펫온느(PET Onne),367000004920240004,000,3670000,영업/정상,정상,1,0,0.0,대전광역시 유성구 원신흥남로**번길 ** (원신흥동),34194.0,대전광역시 유성구 원신흥동 ***-*,,36.33526078218942,127.33648297564469,,2024-07-09,,,,,,I,2026-01-13,2024-07-09,대전광역시,유성구,대전광역시_유성구,ok
별찌몽,367000004920240005,000,3670000,영업/정상,정상,1,0,0.0,"대전광역시 유성구 계룡로**번길 **, ***호 (구암동)",34177.0,대전광역시 유성구 구암동 ***-**,,36.35283624298852,127.33346975752887,,2024-08-30,,,,,,I,2026-01-13,2024-08-30,대전광역시,유성구,대전광역시_유성구,ok
늘푸른 동물병원,367000004920240006,000,3670000,영업/정상,정상,1,0,0.0,대전광역시 유성구 지족로***번길 **-** (지족동),34071.0,대전광역시 유성구 지족동 ***-*,,36.38748512130409,127.31643186689227,042-826-7509,2024-09-19,,,,,,I,2026-01-13,2024-09-19,대전광역시,유성구,대전광역시_유성구,ok
애기 강아지 반려견전문샵,367000004920240007,000,3670000,영업/정상,정상,1,0,0.0,"대전광역시 유성구 학하중앙로***번길 **-*, ***호 (학하동)",34210.0,대전광역시 유성구 학하동 ***-*,,36.33993742215082,127.30617825035264,,2024-10-25,,,,,,I,2026-01-13,2024-10-25,대전광역시,유성구,대전광역시_유성구,ok
옐레드 애견유치원 & 애견호텔 대전노은점,367000004920240008,L00,3670000,영업/정상,정상,1,0,0.0,"대전광역시 유성구 지족동로 ***, *층 (지족동)",34070.0,대전광역시 유성구 지족동 ****-*,,36.388942958525,127.30768026617656,,2024-11-18,,,,,,I,2026-01-13,2024-11-18,대전광역시,유성구,대전광역시_유성구,ok
댕댕이 미용실,367000004920250001,000,3670000,영업/정상,정상,1,0,0.0,"대전광역시 유성구 진잠로**번길 **, ***호 (원내동, 한아름아파트)",34231.0,대전광역시 유성구 원내동 *** 한아름아파트,,36.36854,127.34122,,2025-01-10,,,,,,I,2026-01-13,2025-01-10,대전광역시,유성구,대전광역시_유성구,centroid_fallback
베이비그룸,367000004920250002,000,3670000,영업/정상,정상,1,0,0.0,"대전광역시 유성구 테크노중앙로 **, 에이스타워 *층 ***호 (관평동)",34014.0,대전광역시 유성구 관평동 *** 에이스타워 ***호,,36.36854,127.34122,,2025-03-13,,,,,,I,2026-01-13,2025-03-13,대전광역시,유성구,대전광역시_유성구,centroid_fallback
피앤엠 반려견교육센터 대전점,367000004920250003,000,3670000,영업/정상,정상,1,0,0.0,"대전광역시 유성구 북유성대로***번길 **, *층 (지족동)",34078.0,대전광역시 유성구 지족동 ***-**,,36.380387473453816,127.32133144469724,,2025-03-24,,,,,,I,2026-01-13,2025-03-24,대전광역시,유성구,대전광역시_유성구,ok
발라당,367000004920250004,000,3670000,영업/정상,정상,1,0,0.0,"대전광역시 유성구 지족로***번길 **, 스타주차프라자 *층 ***호 (지족동)",34074.0,대전광역시 유성구 지족동 ****-* 스타주차프라자,,36.378104166576456,127.30507762780992,,2025-04-10,,,,,,I,2026-01-13,2025-04-10,대전광역시,유성구,대전광역시_유성구,ok
한스펫살롱,367000004920250005,000,3670000,영업/정상,정상,1,0,0.0,"대전광역시 유성구 노은서로***번길 **, 상가동 ***호 (지족동, 열매마을아파트*단지)",34082.0,대전광역시 유성구 지족동 *** 열매마을아파트*단지 상가동 ***호,,36.36854,127.34122,,2025-04-29,,,,,,I,2026-01-13,2025-04-29,대전광역시,유성구,대전광역시_유성구,centroid_fallback
예쁜댕,367000004920250006,000,3670000,영업/정상,정상,1,0,0.0,"대전광역시 유성구 죽동로***번길 **, ***호 (죽동)",34127.0,대전광역시 유성구 죽동 ***-* ***호,,36.36904096619954,127.3370876593323,,2025-04-29,,,,,,I,2026-01-13,2025-04-30,대전광역시,유성구,대전광역시_유성구,ok
멍구름,367000004920250007,000,3670000,영업/정상,정상,1,0,0.0,"대전광역시 유성구 전민로**번길 **, 월드빌 *층 ***호 (전민동)",34052.0,대전광역시 유성구 전민동 ***-* 월드빌,,36.39669140079693,127.40193019182996,,2025-06-10,,,,,,I,2026-01-13,2025-06-10,대전광역시,유성구,대전광역시_유성구,ok
댕그랗개,367000004920250008,000,3670000,영업/정상,정상,1,0,0.0,"대전광역시 유성구 은구비서로**번길 *, *층 ***호 (지족동)",34085.0,대전광역시 유성구 지족동 ***-*,,36.37420844229581,127.32102016753196,,2025-07-22,,,,,,I,2026-01-13,2025-07-22,대전광역시,유성구,대전광역시_유성구,ok
하이댕,367000004920250009,000,3670000,영업/정상,정상,1,0,0.0,"대전광역시 유성구 농대로 **, 에이엘**** *층 ***호 (궁동)",34138.0,대전광역시 유성구 궁동 *-** 에이엘****,,36.363368796186464,127.35280953811755,,2025-09-10,,,,,,I,2026-01-13,2025-09-10,대전광역시,유성구,대전광역시_유성구,ok
비엘로(Viello),367000004920250010,000,3670000,영업/정상,정상,1,0,0.0,"대전광역시 유성구 관들*길 **, *층 ***호 (관평동)",34017.0,대전광역시 유성구 관평동 ***,,36.36854,127.34122,,2025-10-29,,,,,,I,2026-01-13,2025-10-29,대전광역시,유성구,대전광역시_유성구,centroid_fallback
도그 테일러,367000004920250011,000,3670000,영업/정상,정상,1,0,0.0,"대전광역시 유성구 은구비남로**번길 **, *층 ***호 (지족동)",34086.0,대전광역시 유성구 지족동 ***-*,,36.374447315011686,127.31951918495918,,2025-11-04,,,,,,I,2026-01-13,2025-11-10,대전광역시,유성구,대전광역시_유성구,ok
코코르펫,367000004920250012,000,3670000,영업/정상,정상,1,0,0.0,"대전광역시 유성구 원신흥남로**번길 **-**, *층 ***호 (원신흥동)",34195.0,대전광역시 유성구 원신흥동 ***-*,,36.335027032050576,127.33955153926378,,2025-12-18,,,,,,I,2026-01-13,2025-12-18,대전광역시,유성구,대전광역시_유성구,ok
살롱드뽀뽀,367000004920250013,000,3670000,영업/정상,정상,1,0,0.0,"대전광역시 유성구 지족북로 **, *층 ***호 (지족동)",34070.0,대전광역시 유성구 지족동 ****-*,,36.38923671079463,127.30647446439863,,2025-12-29,,,,,,I,2026-01-13,2025-12-29,대전광역시,유성구,대전광역시_유성구,ok
퓨어펫 puerpet,367000004920260001,000,3670000,영업/정상,정상,1,0,0.0,"대전광역시 유성구 노은동로 ***, *층 ***호 (지족동)",34085.0,대전광역시 유성구 지족동 ***-**,,36.374459835875406,127.32235232932632,,2026-01-23,,,,,,I,2026-01-24,2026-01-23,대전광역시,유성구,대전광역시_유성구,ok
고양이미용&고양이호텔 비니냥,367000004920260002,000,3670000,영업/정상,정상,1,0,0.0,"대전광역시 유성구 테크노중앙로 **, *층 ***호 (관평동)",34014.0,대전광역시 유성구 관평동 ***,,36.36854,127.34122,,2026-01-23,,,,,,I,2026-01-24,2026-01-23,대전광역시,유성구,대전광역시_유성구,centroid_fallback
리리네 펫살롱,368000004920180002,000,3680000,영업/정상,정상,1,0,0.0,대전광역시 대덕구 중리동로**번길 ** (중리동),34395.0,대전광역시 대덕구 중리동 ***-**,,36.36054837223849,127.42756094760348,042-636-5630,2018-04-05,,,,,,I,2026-01-13,2022-04-28,대전광역시,대덕구,대전광역시_대덕구,ok
나비랑 바둑이,368000004920180005,000,3680000,영업/정상,정상,1,0,0.0,대전광역시 대덕구 우암로 *** (비래동),34416.0,대전광역시 대덕구 비래동 **-*,,36.35484124585235,127.45493916847342,042-634-7111,2018-04-30,,,,,,I,2026-01-13,2024-09-24,대전광역시,대덕구,대전광역시_대덕구,ok
펫하우스애견,368000004920180010,000,3680000,영업/정상,정상,1,0,0.0,대전광역시 대덕구 우암로 *** (비래동),34414.0,대전광역시 대덕구 비래동 ***-**,,36.35830696693309,127.45103239192612,,2018-05-17,,,,,,I,2026-01-13,2022-04-28,대전광역시,대덕구,대전광역시_대덕구,ok
더펫미용실,368000004920180011,000,3680000,영업/정상,정상,1,0,0.0,"대전광역시 대덕구 계족로 ***, 송촌하이마트 (중리동)",34422.0,대전광역시 대덕구 중리동 ***-* 송촌하이마트,,36.36109082176057,127.432096294872,042-345-4414,2018-05-23,,,,,,I,2026-01-13,2022-04-28,대전광역시,대덕구,대전광역시_대덕구,ok
THE 폼나개,368000004920180014,000,3680000,영업/정상,정상,1,0,0.0,"대전광역시 대덕구 석봉북로**번길 *, 신탄진교당 (석봉동)",34317.0,대전광역시 대덕구 석봉동 ***-* 신탄진교당,,36.449357097994486,127.42483014988728,042-935-7654,2018-06-19,,,,,,I,2026-01-13,2022-04-28,대전광역시,대덕구,대전광역시_대덕구,ok
로하스동물병원,368000004920180016,000,3680000,영업/정상,정상,1,0,0.0,"대전광역시 대덕구 덕암로***번길 **, *층 (덕암동)",34330.0,대전광역시 대덕구 덕암동 **-*,,36.44461043491214,127.42403057663576,042-935-7509,2018-08-21,,,,,,I,2026-01-13,2022-04-28,대전광역시,대덕구,대전광역시_대덕구,ok
신탄진동물병원,368000004920180018,000,3680000,영업/정상,정상,1,0,0.0,대전광역시 대덕구 신탄진로 *** (신탄진동),34311.0,대전광역시 대덕구 신탄진동 ***-*,,36.44854055840528,127.42902313448624,042-931-7582,2018-08-23,,,,,,I,2026-01-13,2022-04-28,대전광역시,대덕구,대전광역시_대덕구,ok
펫 아일랜드,368000004920180019,000,3680000,영업/정상,정상,1,0,0.0,대전광역시 대덕구 계족산로**번길 * (중리동),34411.0,대전광역시 대덕구 중리동 ***-*,,36.36211665720547,127.43404384066274,042-636-5630,2018-08-23,,,,,,I,2026-01-13,2022-05-25,대전광역시,대덕구,대전광역시_대덕구,ok
짱구애견,368000004920180021,000,3680000,영업/정상,정상,1,0,0.0,대전광역시 대덕구 중리로 ** (중리동),34389.0,대전광역시 대덕구 중리동 ***-**,,36.36530461624003,127.42528227040158,042-627-0919,2018-08-23,,,,,,I,2026-01-13,2022-10-18,대전광역시,대덕구,대전광역시_대덕구,ok
엉클펫,368000004920180022,000,3680000,영업/정상,정상,1,0,0.0,대전광역시 대덕구 덕암북로 ** (석봉동),34320.0,대전광역시 대덕구 석봉동 ***-**,,36.44503562256868,127.42455961762136,042-931-7979,2018-08-24,,,,,,I,2026-01-13,2024-02-28,대전광역시,대덕구,대전광역시_대덕구,ok
보람애견,368000004920180025,000,3680000,영업/정상,정상,1,0,0.0,대전광역시 대덕구 계족산로**번길 *** (법동),34406.0,대전광역시 대덕구 법동 ***-*,,36.36668876010552,127.43185462082108,042-636-0181,2018-09-03,,,,,,I,2026-01-13,2025-11-27,대전광역시,대덕구,대전광역시_대덕구,ok
(주)야옹아멍멍해봐펫,368000004920180027,000,3680000,영업/정상,정상,1,0,0.0,대전광역시 대덕구 덕암로***번길 ** (덕암동),34330.0,대전광역시 대덕구 덕암동 **-*,,36.444698731801765,127.4238456737767,042-933-0043,2018-09-17,,,,,,I,2026-01-13,2022-04-28,대전광역시,대덕구,대전광역시_대덕구,ok
고려동물병원,368000004920180028,000,3680000,영업/정상,정상,1,0,0.0,대전광역시 대덕구 송촌로**번길 * (송촌동),34423.0,대전광역시 대덕구 송촌동 ***-**,,36.36279157447985,127.44021362233836,042-633-7582,2018-09-17,,,,,,I,2026-01-13,2022-04-28,대전광역시,대덕구,대전광역시_대덕구,ok
디위드동물병원,368000004920180029,000,3680000,영업/정상,정상,1,0,0.0,"대전광역시 대덕구 동춘당로***번길 **-**, 비젼타워 (송촌동)",34400.0,대전광역시 대덕구 송촌동 ***-* 비젼타워,,36.36732838771309,127.43774385400276,042-632-7553,2018-09-17,,,,,,I,2026-01-13,2022-04-28,대전광역시,대덕구,대전광역시_대덕구,ok
카카오독,368000004920180030,000,3680000,영업/정상,정상,1,0,0.0,대전광역시 대덕구 홍도로 *** (중리동),34428.0,대전광역시 대덕구 중리동 ***-**,,36.35738006536725,127.42738158203072,042-623-1203,2018-09-19,,,,,,I,2026-01-13,2022-04-28,대전광역시,대덕구,대전광역시_대덕구,ok
송촌선비동물병원,368000004920180031,000,3680000,영업/정상,정상,1,0,0.0,대전광역시 대덕구 송촌북로*번길 ** (송촌동),34409.0,대전광역시 대덕구 송촌동 ***-*,,36.36297831471198,127.4378890573186,042-637-7515,2018-09-27,,,,,,I,2026-01-13,2025-02-23,대전광역시,대덕구,대전광역시_대덕구,ok
꽃 개,368000004920190004,000,3680000,영업/정상,정상,1,0,0.0,대전광역시 대덕구 대전로 **** (오정동),34445.0,대전광역시 대덕구 오정동 ***-*,,36.34566152953448,127.41847690199724,,2019-10-25,,,,,,I,2026-01-13,2024-12-02,대전광역시,대덕구,대전광역시_대덕구,ok
쥬티펫 신탄진점,368000004920190006,000,3680000,영업/정상,정상,1,0,0.0,대전광역시 대덕구 신탄진로***번길 * (신탄진동),34311.0,대전광역시 대덕구 신탄진동 ***-*,,36.44843046638602,127.4296537402936,,2019-11-19,,,,,,I,2026-01-13,2023-10-27,대전광역시,대덕구,대전광역시_대덕구,ok
애견천국,368000004920200003,000,3680000,영업/정상,정상,1,0,0.0,대전광역시 대덕구 신탄진로 *** (신탄진동),34311.0,대전광역시 대덕구 신탄진동 ***-*,,36.44915626082824,127.42890475628757,042-931-8319,2020-03-10,,,,,,I,2026-01-13,2022-04-28,대전광역시,대덕구,대전광역시_대덕구,ok
Grooming september(그루밍 쎕템버),368000004920200006,000,3680000,영업/정상,정상,1,0,0.0,"대전광역시 대덕구 비래서로 **, ***호 (비래동)",34418.0,대전광역시 대덕구 비래동 ***-*,,36.3544403600826,127.45157132823095,,2020-09-03,,,,,,I,2026-01-13,2025-07-02,대전광역시,대덕구,대전광역시_대덕구,ok
브라운퍼피,368000004920210001,000,3680000,영업/정상,정상,1,0,0.0,대전광역시 대덕구 중리서로 **(중리동),34391.0,대전광역시 대덕구 중리동 ***-**,,36.36323739149797,127.42220989662532,,2021-08-26,,,,,,I,2026-01-13,2022-04-28,대전광역시,대덕구,대전광역시_대덕구,ok
멍데렐라,368000004920210003,000,3680000,영업/정상,정상,1,0,0.0,대전광역시 대덕구 덕암북로 ** (석봉동),34320.0,대전광역시 대덕구 석봉동 ***-*,,36.44647431849148,127.42245577119697,,2021-09-27,,,,,,U,2026-02-28,2026-02-27,대전광역시,대덕구,대전광역시_대덕구,ok
상아동물병원,368000004920220001,000,3680000,영업/정상,정상,1,0,0.0,대전광역시 대덕구 계족로 ***(중리동),34389.0,대전광역시 대덕구 중리동 ***-*,,36.36647081972351,127.42983617273696,042-627-7744,2022-03-23,,,,,,I,2026-01-13,2022-04-28,대전광역시,대덕구,대전광역시_대덕구,ok
댕스토리,368000004920220002,000,3680000,영업/정상,정상,1,0,0.0,"대전광역시 대덕구 대덕대로****번길 **, *층 (석봉동)",34305.0,대전광역시 대덕구 석봉동 ***-*,,36.45135847214274,127.42636617259484,,2022-07-28,,,,,,I,2026-01-13,2022-07-28,대전광역시,대덕구,대전광역시_대덕구,ok
몽개groom,368000004920230001,000,3680000,영업/정상,정상,1,0,0.0,대전광역시 대덕구 중리로**번길 ** (중리동),34389.0,대전광역시 대덕구 중리동 ***-*,,36.36481694627861,127.42806546027276,,2023-04-04,,,,,,I,2026-01-13,2025-06-09,대전광역시,대덕구,대전광역시_대덕구,ok
오늘도예쁘개,368000004920230002,000,3680000,영업/정상,정상,1,0,0.0,대전광역시 대덕구 대청로 ** (신탄진동),34307.0,대전광역시 대덕구 신탄진동 **-*,,36.45332208633327,127.43506670674635,,2023-10-10,,,,,,I,2026-01-13,2024-12-02,대전광역시,대덕구,대전광역시_대덕구,ok
예뻐질고양,368000004920240001,000,3680000,영업/정상,정상,1,0,0.0,"대전광역시 대덕구 송촌북로**번길 **-**, ***호 (송촌동)",34408.0,대전광역시 대덕구 송촌동 ***-**,,36.36505664200971,127.43769093901278,,2024-09-12,,,,,,I,2026-01-13,2024-09-12,대전광역시,대덕구,대전광역시_대덕구,ok
하요,368000004920240002,000,3680000,영업/정상,정상,1,0,0.0,"대전광역시 대덕구 송촌북로 **, *층 (송촌동)",34408.0,대전광역시 대덕구 송촌동 ***-**,,36.36497814464263,127.4365721651551,,2024-10-10,,,,,,I,2026-01-13,2024-10-10,대전광역시,대덕구,대전광역시_대덕구,ok
추영재동물병원,368000004920250001,000,3680000,영업/정상,정상,1,0,0.0,대전광역시 대덕구 한밭대로 **** (오정동),34379.0,대전광역시 대덕구 오정동 **-*,,36.35889849523318,127.41263510103649,042-628-7588,2025-06-19,,,,,,I,2026-01-13,2025-06-19,대전광역시,대덕구,대전광역시_대덕구,ok
몽시앙,368000004920260001,000,3680000,영업/정상,정상,1,0,0.0,"대전광역시 대덕구 동춘당로**번길 **-**, ***호 (송촌동)",34401.0,대전광역시 대덕구 송촌동 ***-*,,36.36641588152972,127.43894962833316,,2026-02-05,,,,,,I,2026-02-06,2026-02-05,대전광역시,대덕구,대전광역시_대덕구,ok
애견스케치,369000004920100007,000,3690000,영업/정상,정상,1,0,,울산광역시 중구 성안로 *** (성안동),,울산광역시 중구 성안동 ***-*,,35.574501005296106,129.3161521927585,,2010-10-05,,,,,,I,2026-01-13,2022-04-28,울산광역시,중구,울산광역시_중구,ok
프렌즈 애견,369000004920180013,000,3690000,영업/정상,정상,1,0,0.0,울산광역시 중구 다운로 ** (다운동),44406.0,울산광역시 중구 다운동 ***-*,,35.559786614600895,129.27081342681265,,2018-09-19,,,,,,I,2026-01-13,2025-11-14,울산광역시,중구,울산광역시_중구,ok
개미용실,369000004920180014,000,3690000,영업/정상,정상,1,0,0.0,울산광역시 중구 다운*길 ** (다운동),44402.0,울산광역시 중구 다운동 ***-**,,35.5640573689406,129.26827108026015,,2018-09-27,,,,,,I,2026-01-13,2025-06-02,울산광역시,중구,울산광역시_중구,ok
우정 동물병원,369000004920180017,000,3690000,영업/정상,정상,1,0,0.0,"울산광역시 중구 종가*길 **, *층 (유곡동)",44539.0,울산광역시 중구 유곡동 ***-**,,35.56035702150504,129.29696844865825,,2018-10-15,,,,,,I,2026-01-13,2022-04-28,울산광역시,중구,울산광역시_중구,ok
뭉이와 수애견,369000004920180023,000,3690000,영업/정상,정상,1,0,0.0,울산광역시 중구 학성공원**길 ** (학성동),44527.0,울산광역시 중구 학성동 ***-*,,35.55568082886922,129.33704777155123,,2018-10-18,,,,,,I,2026-01-13,2022-04-28,울산광역시,중구,울산광역시_중구,ok
애니원애견미용,369000004920180030,000,3690000,영업/정상,정상,1,0,0.0,"울산광역시 중구 성안*길 **, ***호 (성안동)",44417.0,울산광역시 중구 성안동 ***-*,,35.57804815203856,129.32042638466424,,2018-10-26,,,,,,I,2026-01-13,2022-04-28,울산광역시,중구,울산광역시_중구,ok
메이 동물병원,369000004920190004,000,3690000,영업/정상,정상,1,0,0.0,울산광역시 중구 번영로 *** (남외동),44493.0,울산광역시 중구 남외동 ***-*,,35.56932665114897,129.34535380549474,,2019-03-11,,,,,,I,2026-01-13,2022-04-28,울산광역시,중구,울산광역시_중구,ok
댕댕이아지트,369000004920190006,000,3690000,영업/정상,정상,1,0,0.0,울산광역시 중구 반구정**길 ** (반구동),44501.0,울산광역시 중구 반구동 ***-*,,35.5561307170199,129.34284402964616,,2019-05-13,,,,,,I,2026-01-13,2025-11-14,울산광역시,중구,울산광역시_중구,ok
멍블리,369000004920190007,000,3690000,영업/정상,정상,1,0,0.0,"울산광역시 중구 함월**길 **, 고운빛 (성안동)",44424.0,울산광역시 중구 성안동 ***-* 고운빛,,35.57506923960927,129.30500126653317,052-244-0827,2019-05-28,,,,,,I,2026-01-13,2022-04-28,울산광역시,중구,울산광역시_중구,ok
댕's 샤워,369000004920190009,000,3690000,영업/정상,정상,1,0,0.0,울산광역시 중구 화진*길 * (태화동),44451.0,울산광역시 중구 태화동 **-**,,35.55629641791053,129.3061517121538,,2019-06-17,,,,,,I,2026-01-13,2022-04-28,울산광역시,중구,울산광역시_중구,ok
트루디독,369000004920190019,000,3690000,영업/정상,정상,1,0,0.0,"울산광역시 중구 계변로 **, *층 ***호 (복산동)",44470.0,울산광역시 중구 복산동 ***-*,,35.56272137202392,129.32976530446928,,2019-10-16,,,,,,I,2026-01-13,2022-09-05,울산광역시,중구,울산광역시_중구,ok
"늘, 빛나개",369000004920190021,000,3690000,영업/정상,정상,1,0,0.0,"울산광역시 중구 계변로 **, 드림파크 상가 지하*층 ***호 (복산동)",44511.0,울산광역시 중구 복산동 **-*,,35.560944485979824,129.33194304702224,,2019-11-20,,,,,,I,2026-01-13,2022-04-28,울산광역시,중구,울산광역시_중구,ok
개편한 미용#,369000004920190027,000,3690000,영업/정상,정상,1,0,0.0,"울산광역시 중구 서원*길 **, ***호 (복산동)",44511.0,울산광역시 중구 복산동 **-**,,35.56073557949158,129.33710207653277,,2019-12-26,,,,,,I,2026-01-13,2022-04-28,울산광역시,중구,울산광역시_중구,ok
울알라애견미용,369000004920200003,000,3690000,영업/정상,정상,1,0,0.0,울산광역시 중구 태화로 *** (태화동),44451.0,울산광역시 중구 태화동 **-**,,35.55456845809255,129.30554335602892,052-245-0911,2020-02-10,,,,,,I,2026-01-13,2024-09-26,울산광역시,중구,울산광역시_중구,ok
전영호 동물병원,369000004920200007,000,3690000,영업/정상,정상,1,0,0.0,"울산광역시 중구 구교로 ***, *층 (반구동)",44513.0,울산광역시 중구 반구동 ***-*,,35.559268904763535,129.34006858249018,052-292-4112,2020-05-11,,,,,,I,2026-01-13,2025-07-14,울산광역시,중구,울산광역시_중구,ok
오아오아,369000004920210001,000,3690000,영업/정상,정상,1,0,0.0,울산광역시 중구 반구정**길 ** (반구동),44502.0,울산광역시 중구 반구동 ***,,35.56189,129.3203,,2021-03-09,,,,,,I,2026-01-13,2025-06-05,울산광역시,중구,울산광역시_중구,centroid_fallback
러브썸퍼피,369000004920210002,000,3690000,영업/정상,정상,1,0,0.0,울산광역시 중구 종가*길 ** (유곡동),44539.0,울산광역시 중구 유곡동 ***-*,,35.55857441462694,129.2940742620077,,2021-03-10,,,,,,I,2026-01-13,2024-01-02,울산광역시,중구,울산광역시_중구,ok
코롱코롱,369000004920210005,000,3690000,영업/정상,정상,1,0,0.0,"울산광역시 중구 곽남길 ***, *층 (남외동)",44490.0,울산광역시 중구 남외동 **-**,,35.573374664294256,129.33932946151128,,2021-06-01,,,,,,I,2026-01-13,2022-04-28,울산광역시,중구,울산광역시_중구,ok
멍이 스타일,369000004920210014,000,3690000,영업/정상,정상,1,0,0.0,울산광역시 중구 중앙길 **(성남동),44529.0,울산광역시 중구 성남동 ***-**,,35.5549074298472,129.3175618939031,,2021-08-09,,,,,,I,2026-01-13,2022-04-28,울산광역시,중구,울산광역시_중구,ok
까끄롱,369000004920220002,000,3690000,영업/정상,정상,1,0,0.0,울산광역시 중구 우정*길 **(우정동),44461.0,울산광역시 중구 우정동 ***-*,,35.55918927418277,129.31221812250362,,2022-01-02,,,,,,I,2026-01-13,2022-04-28,울산광역시,중구,울산광역시_중구,ok
쁘띠독,369000004920220006,000,3690000,영업/정상,정상,1,0,0.0,울산광역시 중구 동천*길 **(서동),44481.0,울산광역시 중구 서동 **-*,,35.581100707886144,129.34468019994657,052-293-3010,2022-03-18,,,,,,I,2026-01-13,2022-04-28,울산광역시,중구,울산광역시_중구,ok
엔조이어블,369000004920220008,000,3690000,영업/정상,정상,1,0,0.0,울산광역시 중구 종가**길 *-*(장현동),44548.0,울산광역시 중구 장현동 ***-*,,35.58734907055089,129.34243989686377,,2022-03-23,,,,,,I,2026-01-13,2022-04-28,울산광역시,중구,울산광역시_중구,ok
오늘도예쁘개,369000004920220009,000,3690000,영업/정상,정상,1,0,0.0,울산광역시 중구 명륜로 **(우정동),44534.0,울산광역시 중구 우정동 ***-**,,35.55491646146191,129.30946816656694,,2022-04-20,,,,,,I,2026-01-13,2022-04-28,울산광역시,중구,울산광역시_중구,ok
김은미애견미용,369000004920220010,000,3690000,영업/정상,정상,1,0,0.0,"울산광역시 중구 신기**길 *, 상가동 **호 (태화동, 삼익세라믹아파트)",44455.0,울산광역시 중구 태화동 ***-* 삼익세라믹아파트,,35.55236048848899,129.29967459483055,,2022-05-10,,,,,,I,2026-01-13,2022-05-10,울산광역시,중구,울산광역시_중구,ok
강아지마을,369000004920220012,000,3690000,영업/정상,정상,1,0,0.0,울산광역시 중구 중앙길 **(성남동),44529.0,울산광역시 중구 성남동 ***-**,,35.55480450690259,129.31739072193113,052-244-9601,2022-06-15,,,,,,I,2026-01-13,2022-06-15,울산광역시,중구,울산광역시_중구,ok
샵펫 강아지분양 울산점,369000004920220013,000,3690000,영업/정상,정상,1,0,0.0,울산광역시 중구 중앙길 **(성남동),44529.0,울산광역시 중구 성남동 ***-**,,35.55492789300554,129.31713911507902,,2022-06-17,,,,,,I,2026-01-13,2022-06-17,울산광역시,중구,울산광역시_중구,ok
꽃강아지,369000004920220014,000,3690000,영업/정상,정상,1,0,0.0,울산광역시 중구 태화로 ***(태화동),44456.0,울산광역시 중구 태화동 ***-*,,35.55197328273207,129.30024211650286,,2022-06-23,,,,,,I,2026-01-13,2024-01-02,울산광역시,중구,울산광역시_중구,ok
히피살롱,369000004920220015,000,3690000,영업/정상,정상,1,0,0.0,"울산광역시 중구 종가로 ***, *층 *호 (서동)",44547.0,울산광역시 중구 서동 ***-*,,35.58130364759274,129.33972755554757,,2022-08-22,,,,,,I,2026-01-13,2024-06-13,울산광역시,중구,울산광역시_중구,ok
애니펫살롱,369000004920220016,000,3690000,영업/정상,정상,1,0,0.0,울산광역시 중구 구루미*길 **(다운동),44408.0,울산광역시 중구 다운동 ***-*,,35.559086661066615,129.27066882975478,,2022-12-09,,,,,,I,2026-01-13,2023-12-11,울산광역시,중구,울산광역시_중구,ok
뽀송뽀송,369000004920230002,000,3690000,영업/정상,정상,1,0,0.0,울산광역시 중구 병영로 **(서동),44494.0,울산광역시 중구 서동 ***-*,,35.571882286550284,129.34630196702008,,2023-01-26,,,,,,I,2026-01-13,2023-01-26,울산광역시,중구,울산광역시_중구,ok
더예쁘개,369000004920230003,000,3690000,영업/정상,정상,1,0,0.0,"울산광역시 중구 옥교*길 **-**, *층 (학산동)",44522.0,울산광역시 중구 학산동 *-*,,35.55458799686494,129.33078467571033,,2023-10-25,,,,,,I,2026-01-13,2023-10-25,울산광역시,중구,울산광역시_중구,ok
댕댕쌀롱,369000004920230004,000,3690000,영업/정상,정상,1,0,0.0,"울산광역시 중구 신기*길 **, *층 (태화동)",44457.0,울산광역시 중구 태화동 ***-*,,35.55086501464318,129.29407436593291,,2023-10-28,,,,,,I,2026-01-13,2023-10-28,울산광역시,중구,울산광역시_중구,ok
개랑나랑,369000004920230005,000,3690000,영업/정상,정상,1,0,0.0,"울산광역시 중구 성안*길 **, *층 (성안동, 늘푸른빌)",44420.0,울산광역시 중구 성안동 ***-* 늘푸른빌,,35.572798123654195,129.31580372983294,,2023-11-08,,,,,,I,2026-01-13,2023-11-08,울산광역시,중구,울산광역시_중구,ok
강아지 이발소 홍선생,369000004920240002,000,3690000,영업/정상,정상,1,0,0.0,"울산광역시 중구 해오름*길 **, ***호 (남외동)",44507.0,울산광역시 중구 남외동 ****-**,,35.564502768765365,129.3437358305136,,2024-04-10,,,,,,I,2026-01-13,2024-04-10,울산광역시,중구,울산광역시_중구,ok
말랑말랭,369000004920240003,000,3690000,영업/정상,정상,1,0,0.0,"울산광역시 중구 남외*길 ***, 상가동 *층 *호 (남외동, 일신 에일린의 뜰 아파트)",44495.0,울산광역시 중구 남외동 *** 일신 에일린의 뜰 아파트,,35.56189,129.3203,,2024-06-18,,,,,,I,2026-01-13,2024-06-18,울산광역시,중구,울산광역시_중구,centroid_fallback
아르릉,369000004920250001,000,3690000,영업/정상,정상,1,0,0.0,"울산광역시 중구 평산로 **-*, 宙美 *층 ***호 (약사동)",44472.0,울산광역시 중구 약사동 ***-* 宙美,,35.569793307450354,129.33857250235465,,2025-03-04,,,,,,I,2026-01-13,2025-03-04,울산광역시,중구,울산광역시_중구,ok
어멍 애견유치원 애견미용 애견호텔 울산,369000004920250002,000,3690000,영업/정상,정상,1,0,0.0,"울산광역시 중구 당산*길 *, *층 (우정동)",44534.0,울산광역시 중구 우정동 ***-*,,35.554092179657395,129.3094953298712,,2025-04-28,,,,,,I,2026-01-13,2025-12-02,울산광역시,중구,울산광역시_중구,ok
펫더헤븐 태화동물병원점,369000004920250003,000,3690000,영업/정상,정상,1,0,0.0,"울산광역시 중구 태화로 ***, *층 (태화동)",44457.0,울산광역시 중구 태화동 ***-*,,35.55274084979516,129.2933102443373,,2025-05-13,,,,,,I,2026-01-13,2025-05-13,울산광역시,중구,울산광역시_중구,ok
멍컷트,369000004920250004,000,3690000,영업/정상,정상,1,0,0.0,"울산광역시 중구 종가**길 **-**, ***호 (서동)",44547.0,울산광역시 중구 서동 ***-* ***호,,35.58090580222731,129.33880419034895,,2025-11-06,,,,,,I,2026-01-13,2025-11-06,울산광역시,중구,울산광역시_중구,ok
뚱이애견,370000004920180001,000,3700000,영업/정상,정상,1,0,0.0,울산광역시 남구 신정로***번길 **(신정동),44686.0,울산광역시 남구 신정동 **-**,,35.546834645699846,129.32155569899288,,2018-04-12,,,,,,I,2026-01-13,2022-11-30,울산광역시,남구,울산광역시_남구,ok
B&B(바비브라운 비숑프리제),370000004920180002,000,3700000,영업/정상,정상,1,0,0.0,"울산광역시 남구 화합로***번길 **, *층 (삼산동)",44713.0,울산광역시 남구 삼산동 ****-*,,35.5419473331331,129.3430659129539,,2018-04-12,,,,,,I,2026-01-13,2022-04-28,울산광역시,남구,울산광역시_남구,ok
렛츠개릿,370000004920180008,000,3700000,영업/정상,정상,1,0,0.0,"울산광역시 남구 봉월로 **, *층 (신정동)",44650.0,울산광역시 남구 신정동 ****-*,,35.53882635541675,129.30518548979543,,2018-04-12,,,,,,I,2026-01-13,2022-04-28,울산광역시,남구,울산광역시_남구,ok
신정애견미용,370000004920180020,000,3700000,영업/정상,정상,1,0,0.0,"울산광역시 남구 봉월로 **, 더베스트리빙텔 *층 (신정동)",44677.0,울산광역시 남구 신정동 ****-**,,35.533844238752685,129.30718156937,052-267-3232,2018-04-12,,,,,,I,2026-01-13,2022-04-28,울산광역시,남구,울산광역시_남구,ok
하트애견미용실,370000004920180028,000,3700000,영업/정상,정상,1,0,0.0,"울산광역시 남구 달삼로**번길 *-**, *층 (달동)",44721.0,울산광역시 남구 달동 ****-**,,35.53466533983549,129.33202214031036,,2018-05-04,,,,,,I,2026-01-13,2022-04-28,울산광역시,남구,울산광역시_남구,ok
순도리네애견,370000004920180029,000,3700000,영업/정상,정상,1,0,0.0,울산광역시 남구 삼산로**번길 ** (달동),44691.0,울산광역시 남구 달동 ***-*,,35.537337991664685,129.31498176302566,052-933-3535,2018-05-17,,,,,,I,2026-01-13,2022-04-28,울산광역시,남구,울산광역시_남구,ok
플러스애견미용실,345000004920180053,000,3450000,영업/정상,정상,1,0,0.0,"대구광역시 북구 중앙대로 ***, *층 (칠성동*가)",41579.0,대구광역시 북구 칠성동*가 ***-*,,35.88121756157966,128.5968008770669,053-253-2455,2018-09-27,,,,,,I,2026-01-13,2022-04-28,대구광역시,북구,대구광역시_북구,ok
펫 하우스,345000004920180054,000,3450000,영업/정상,정상,1,0,0.0,"대구광역시 북구 팔달로**길 *, *층 (노원동*가)",41558.0,대구광역시 북구 노원동*가 ***-*,,35.88866518386883,128.5699013236126,053-357-2789,2018-09-28,,,,,,I,2026-01-13,2022-04-28,대구광역시,북구,대구광역시_북구,ok
더(The)예쁘개,345000004920180057,000,3450000,영업/정상,정상,1,0,0.0,"대구광역시 북구 한강로*길 **, ***호 (사수동)",41598.0,대구광역시 북구 사수동 ***,,35.91501,128.58203,053-984-0380,2018-10-16,,,,,,I,2026-01-13,2022-04-28,대구광역시,북구,대구광역시_북구,centroid_fallback
플라잉독,345000004920190004,000,3450000,영업/정상,정상,1,0,0.0,"대구광역시 북구 태암로*길 **-*, *층 (태전동)",41460.0,대구광역시 북구 태전동 ****-**,,35.92986073839463,128.55131052840977,053-323-6016,2019-01-15,,,,,,I,2026-01-13,2022-04-28,대구광역시,북구,대구광역시_북구,ok
레드앤화이트독,345000004920190005,000,3450000,영업/정상,정상,1,0,0.0,"대구광역시 북구 구암로 ***, *층 (동천동)",41431.0,대구광역시 북구 동천동 ***-*,,35.93206610902044,128.55609873296686,053-326-4959,2019-01-21,,,,,,I,2026-01-13,2022-04-28,대구광역시,북구,대구광역시_북구,ok
아프리카 동물병원,345000004920190015,000,3450000,영업/정상,정상,1,0,0.0,"대구광역시 북구 침산로 ***, *층 (침산동)",41584.0,대구광역시 북구 침산동 ***-*,,35.88642766429362,128.59169417704405,053-291-3336,2019-04-23,,,,,,I,2026-01-13,2022-04-28,대구광역시,북구,대구광역시_북구,ok
BE MY DOG,345000004920190016,000,3450000,영업/정상,정상,1,0,0.0,"대구광역시 북구 성북로*길 **-**, *층 (침산동)",41550.0,대구광역시 북구 침산동 ***-**,,35.89253247239352,128.58771574186937,,2019-05-31,,,,,,I,2026-01-13,2022-04-28,대구광역시,북구,대구광역시_북구,ok
동천 동물병원,345000004920190018,000,3450000,영업/정상,정상,1,0,0.0,"대구광역시 북구 동천로**길 *, *층 (동천동)",41423.0,대구광역시 북구 동천동 ***-*,,35.942085242031744,128.5609059223435,,2019-06-07,,,,,,I,2026-01-13,2022-04-28,대구광역시,북구,대구광역시_북구,ok
애견#,345000004920190020,000,3450000,영업/정상,정상,1,0,0.0,"대구광역시 북구 칠곡중앙대로**길 **-*, *층 (태전동)",41467.0,대구광역시 북구 태전동 ***,,35.91501,128.58203,,2019-06-12,,,,,,I,2026-01-13,2024-12-11,대구광역시,북구,대구광역시_북구,centroid_fallback
그루펫,345000004920190027,000,3450000,영업/정상,정상,1,0,0.0,대구광역시 북구 구암로**길 **-* (구암동),41432.0,대구광역시 북구 구암동 ***-*,,35.933174637310145,128.56395880330246,,2019-12-30,,,,,,I,2026-01-13,2024-12-11,대구광역시,북구,대구광역시_북구,ok
순돌뭐하니,345000004920200001,000,3450000,영업/정상,정상,1,0,0.0,"대구광역시 북구 칠곡중앙대로 ***, ***호 (태전동)",41471.0,대구광역시 북구 태전동 ****,,35.91501,128.58203,,2020-01-30,,,,,,I,2026-01-13,2022-04-28,대구광역시,북구,대구광역시_북구,centroid_fallback
벧엘애견,345000004920200004,000,3450000,영업/정상,정상,1,0,,대구광역시 북구 칠곡중앙대로 *** (태전동),41467.0,대구광역시 북구 태전동 ***-*,,35.91797763068097,128.54830830707115,053-311-0620,2020-06-18,,,,,,I,2026-01-13,2023-03-20,대구광역시,북구,대구광역시_북구,ok
해솔동물병원,345000004920200008,000,3450000,영업/정상,정상,1,0,,"대구광역시 북구 신암로 **, *층 (대현동)",41576.0,대구광역시 북구 대현동 ***-**,,35.878248707392146,128.6087629522968,053-959-7775,2020-09-14,,,,,,I,2026-01-13,2022-04-28,대구광역시,북구,대구광역시_북구,ok
꽃개,345000004920200010,000,3450000,영업/정상,정상,1,0,0.0,"대구광역시 북구 팔거천서로 ***, *층 (읍내동)",41436.0,대구광역시 북구 읍내동 ****-**,,35.939074797519545,128.55612344036032,,2020-11-03,,,,,,I,2026-01-13,2022-04-28,대구광역시,북구,대구광역시_북구,ok
입댕로랑,345000004920200013,000,3450000,영업/정상,정상,1,0,,대구광역시 북구 대천로**길 **-** (동천동),41427.0,대구광역시 북구 동천동 ***-*,,35.93941510098862,128.5597857338471,,2020-11-30,,,,,,I,2026-01-13,2023-04-03,대구광역시,북구,대구광역시_북구,ok
첨단살롱,345000004920210008,000,3450000,영업/정상,정상,1,0,,"대구광역시 북구 산격로**길 **, *층 (산격동)",41537.0,대구광역시 북구 산격동 ****-***,,35.89566018003067,128.6029218567511,,2021-07-21,,,,,,I,2026-01-13,2022-04-28,대구광역시,북구,대구광역시_북구,ok
꾸미시개,345000004920210009,000,3450000,영업/정상,정상,1,0,,"대구광역시 북구 내곡로 **, 상가동 *-*호 (사수동, 서희스타힐스테이)",41492.0,대구광역시 북구 사수동 *** 서희스타힐스테이 상가동 *-*호,,35.91501,128.58203,,2021-08-02,,,,,,I,2026-01-13,2024-01-26,대구광역시,북구,대구광역시_북구,centroid_fallback
딱이네미용실,345000004920210011,000,3450000,영업/정상,정상,1,0,0.0,"대구광역시 북구 구암로**길 *, ***호 (구암동)",41424.0,대구광역시 북구 구암동 ***-* ***호,,35.94085924758655,128.56895408060208,,2021-08-05,,,,,,I,2026-01-13,2022-04-28,대구광역시,북구,대구광역시_북구,ok
개운하개,345000004920210012,000,3450000,영업/정상,정상,1,0,,대구광역시 북구 동암로**길 **(국우동),41419.0,대구광역시 북구 국우동 ****-**,,35.945502357391526,128.57164166808286,,2021-08-17,,,,,,I,2026-01-13,2022-04-28,대구광역시,북구,대구광역시_북구,ok
포실하개,345000004920210014,000,3450000,영업/정상,정상,1,0,,"대구광역시 북구 연경중앙로 **, 상가동 ***호 (연경동, 대구연경 연경숲)",41409.0,대구광역시 북구 연경동 *** 대구연경 연경숲 상가동 ***호,,35.91501,128.58203,,2021-10-19,,,,,,I,2026-01-13,2022-04-28,대구광역시,북구,대구광역시_북구,centroid_fallback
슬로독,345000004920210015,000,3450000,영업/정상,정상,1,0,0.0,"대구광역시 북구 호국로 ***, 대성골든프라자*차 상가동 ***호 (서변동)",41475.0,대구광역시 북구 서변동 **** 대성골든프라자*차 상가동 ***호,,35.91501,128.58203,053-957-2703,2021-11-03,,,,,,I,2026-01-13,2022-04-28,대구광역시,북구,대구광역시_북구,centroid_fallback
베스띠몽,345000004920220001,000,3450000,영업/정상,정상,1,0,,대구광역시 북구 주좌길 **-*(학정동),41416.0,대구광역시 북구 학정동 ***-*,,35.949654824790194,128.56860425297964,,2022-01-03,,,,,,I,2026-01-13,2022-04-28,대구광역시,북구,대구광역시_북구,ok
도꾸야,345000004920220005,000,3450000,영업/정상,정상,1,0,,"대구광역시 북구 칠곡중앙대로 ***, *층 (태전동)",41457.0,대구광역시 북구 태전동 ***-* *층,,35.924087972748794,128.546717843148,053-202-0059,2022-01-17,,,,,,I,2026-01-13,2022-04-28,대구광역시,북구,대구광역시_북구,ok
큐티하개_함,345000004920220007,000,3450000,영업/정상,정상,1,0,,"대구광역시 북구 관음동로 ***, *층 (관음동)",41440.0,대구광역시 북구 관음동 ****-*,,35.946533966103374,128.54600100096198,,2022-03-18,,,,,,I,2026-01-13,2022-04-28,대구광역시,북구,대구광역시_북구,ok
마스코타 펫,345000004920220009,000,3450000,영업/정상,정상,1,0,,"대구광역시 북구 복현로 ***, 상가동 *층 ***호 (복현동, 복현*차서한이다음)",41522.0,대구광역시 북구 복현동 *** 복현*차서한이다음 상가동 ***호,,35.91501,128.58203,,2022-03-24,,,,,,I,2026-01-13,2022-04-28,대구광역시,북구,대구광역시_북구,centroid_fallback
해피펫애견,345000004920220011,000,3450000,영업/정상,정상,1,0,,"대구광역시 북구 동변로 **-*, *층 (동변동)",41413.0,대구광역시 북구 동변동 ***-* *층,,35.92027603782192,128.60385671016317,053-957-0975,2022-04-18,,,,,,I,2026-01-13,2022-04-28,대구광역시,북구,대구광역시_북구,ok
콩찌네 미용실,345000004920220013,000,3450000,영업/정상,정상,1,0,,대구광역시 북구 태암로 **(구암동),41465.0,대구광역시 북구 구암동 ***-*,,35.92763494930905,128.55556805731297,,2022-04-20,,,,,,I,2026-01-13,2024-08-26,대구광역시,북구,대구광역시_북구,ok
헬로우 그루밍,345000004920220015,000,3450000,영업/정상,정상,1,0,,"대구광역시 북구 복현로**길 *, *층 (복현동)",41522.0,대구광역시 북구 복현동 *** *층,,35.91501,128.58203,,2022-07-06,,,,,,I,2026-01-13,2022-07-06,대구광역시,북구,대구광역시_북구,centroid_fallback
강아지 뷰티,345000004920220016,000,3450000,영업/정상,정상,1,0,,"대구광역시 북구 칠곡중앙대로**길 **-*, *층 (관음동)",41444.0,대구광역시 북구 관음동 ****-**,,35.9368016126854,128.54527118737414,,2022-07-19,,,,,,I,2026-01-13,2022-07-19,대구광역시,북구,대구광역시_북구,ok
뽀얌,345000004920220018,000,3450000,영업/정상,정상,1,0,,대구광역시 북구 대현남로*길 **(대현동),41574.0,대구광역시 북구 대현동 ***-*,,35.87886814429743,128.6058214273907,,2022-08-10,,,,,,I,2026-01-13,2022-08-10,대구광역시,북구,대구광역시_북구,ok
이든동물병원,345000004920220019,000,3450000,영업/정상,정상,1,0,,대구광역시 북구 동북로 ***(복현동),41562.0,대구광역시 북구 복현동 ***-*,,35.894421831113064,128.6185068597059,053-939-1175,2022-12-07,,,,,,I,2026-01-13,2022-12-07,대구광역시,북구,대구광역시_북구,ok
벤이네,345000004920230001,000,3450000,영업/정상,정상,1,0,,"대구광역시 북구 성북로 *, ***동 **호 (침산동, 침산*지구아파트)",41559.0,대구광역시 북구 침산동 ***-* 침산*지구아파트 ***동 **호,,35.8896960650622,128.58498302878627,,2023-01-09,,,,,,I,2026-01-13,2023-01-09,대구광역시,북구,대구광역시_북구,ok
다듬다 펫미용,345000004920230002,000,3450000,영업/정상,정상,1,0,,"대구광역시 북구 검단로 *, ***-*호 (산격동)",41520.0,대구광역시 북구 산격동 ***-**,,35.89790248409652,128.61493253125587,,2023-02-28,,,,,,I,2026-01-13,2023-02-28,대구광역시,북구,대구광역시_북구,ok
펫제제(PET JEJE),345000004920230003,000,3450000,영업/정상,정상,1,0,,"대구광역시 북구 침산남로**길 *, 상가동 ***호 (침산동, 침산화성타운)",41561.0,대구광역시 북구 침산동 ***-* 침산화성타운,,35.88780861106294,128.5954970561969,,2023-03-10,,,,,,I,2026-01-13,2023-03-10,대구광역시,북구,대구광역시_북구,ok
이츠펫 칠성점,345000004920230004,000,3450000,영업/정상,정상,1,0,,"대구광역시 북구 칠성가구시장로 *, *층 (칠성동*가)",41583.0,대구광역시 북구 칠성동*가 ***-*,,35.87510763520316,128.60674611261229,053-255-0077,2023-03-13,,,,,,I,2026-01-13,2023-03-13,대구광역시,북구,대구광역시_북구,ok
똥강아지 반려견 미용실·호텔,345000004920230005,000,3450000,영업/정상,정상,1,0,,대구광역시 북구 연경중앙로*길 ** (연경동),41409.0,대구광역시 북구 연경동 ****-*,,35.94368984043388,128.62026869833315,,2023-03-30,,,,,,I,2026-01-13,2023-04-03,대구광역시,북구,대구광역시_북구,ok
뽐내시개,345000004920230006,000,3450000,영업/정상,정상,1,0,,"대구광역시 북구 한강로 **, 상가동 ***호 (사수동, 금호서한이다음)",41599.0,대구광역시 북구 사수동 *** 금호서한이다음 상가동 ***호,,35.91501,128.58203,,2023-04-28,,,,,,I,2026-01-13,2023-05-08,대구광역시,북구,대구광역시_북구,centroid_fallback
깜지네,345000004920230007,000,3450000,영업/정상,정상,1,0,0.0,"대구광역시 북구 대천로**길 **, *층 (동천동)",41430.0,대구광역시 북구 동천동 ***-* *층,,35.93471232368443,128.55721034300927,,2023-05-30,,,,,,I,2026-01-13,2023-05-30,대구광역시,북구,대구광역시_북구,ok
뽀숑,345000004920230009,000,3450000,영업/정상,정상,1,0,0.0,"대구광역시 북구 동화천로 ***, ***동 ***호 (연경동, 연경동화 아이위시)",41409.0,대구광역시 북구 연경동 *** 연경동화 아이위시 ***동 ***호,,35.91501,128.58203,,2023-06-30,,,,,,I,2026-01-13,2023-06-30,대구광역시,북구,대구광역시_북구,centroid_fallback
욜로독,345000004920230011,000,3450000,영업/정상,정상,1,0,0.0,"대구광역시 북구 동북로 ***-*, *층 (복현동)",41529.0,대구광역시 북구 복현동 ***-*,,35.89398031273381,128.6200275310583,,2026-01-05,,,,,,I,2026-01-13,2026-01-05,대구광역시,북구,대구광역시_북구,ok
개미용실,345000004920240001,000,3450000,영업/정상,정상,1,0,0.0,"대구광역시 북구 산격로**길 **, *층 (산격동)",41537.0,대구광역시 북구 산격동 ****-***,,35.89566018003067,128.6029218567511,,2024-01-17,,,,,,I,2026-01-13,2024-01-17,대구광역시,북구,대구광역시_북구,ok
강아지 마을,345000004920240003,000,3450000,영업/정상,정상,1,0,0.0,대구광역시 북구 칠성로**길 ** (침산동),41579.0,대구광역시 북구 침산동 ***-*,,35.88211824568856,128.5980322876735,053-427-0607,2024-02-01,,,,,,I,2026-01-13,2024-02-01,대구광역시,북구,대구광역시_북구,ok
퍼피포유,345000004920240004,000,3450000,영업/정상,정상,1,0,0.0,"대구광역시 북구 칠성남로 ***, ***동 ***호 (칠성동*가, 대구역한라하우젠트센텀)",41588.0,대구광역시 북구 칠성동*가 *** 대구역한라하우젠트센텀,,35.91501,128.58203,,2024-02-07,,,,,,I,2026-01-13,2024-02-07,대구광역시,북구,대구광역시_북구,centroid_fallback
강생이네,345000004920240005,000,3450000,영업/정상,정상,1,0,0.0,대구광역시 북구 학정로**길 ** (구암동),41473.0,대구광역시 북구 구암동 ***,,35.91501,128.58203,,2024-03-18,,,,,,I,2026-01-13,2024-03-18,대구광역시,북구,대구광역시_북구,centroid_fallback
뽀송하랑,345000004920240006,000,3450000,영업/정상,정상,1,0,0.0,"대구광역시 북구 동암로*길 *, *층 (읍내동)",41402.0,대구광역시 북구 읍내동 ****-**,,35.94690852805133,128.5549391946902,,2024-04-16,,,,,,I,2026-01-13,2024-04-16,대구광역시,북구,대구광역시_북구,ok
무드그루밍,345000004920240007,000,3450000,영업/정상,정상,1,0,0.0,"대구광역시 북구 고성북로 *, ***동 *층 *호 (고성동*가, 고성아파트)",41596.0,대구광역시 북구 고성동*가 ***-* 고성아파트,,35.88017100215627,128.58211071328256,,2024-05-02,,,,,,I,2026-01-13,2024-05-02,대구광역시,북구,대구광역시_북구,ok
때빼고 광나개,345000004920240008,000,3450000,영업/정상,정상,1,0,0.0,"대구광역시 북구 한강로 **, *층 (사수동)",41598.0,대구광역시 북구 사수동 ***,,35.91501,128.58203,,2024-05-12,,,,,,I,2026-01-13,2024-05-12,대구광역시,북구,대구광역시_북구,centroid_fallback
댕스미스 애견미용,345000004920240009,000,3450000,영업/정상,정상,1,0,0.0,"대구광역시 북구 성북로 **, 창준빌딩 ***호 (침산동)",41560.0,대구광역시 북구 침산동 ***-**,,35.89150441164604,128.5905035325055,,2024-06-18,,,,,,I,2026-01-13,2024-06-18,대구광역시,북구,대구광역시_북구,ok
Woo Da Da,345000004920240010,000,3450000,영업/정상,정상,1,0,0.0,"대구광역시 북구 칠곡중앙대로***길 **, *층 (읍내동)",41402.0,대구광역시 북구 읍내동 ***-*,,35.947727368288355,128.55340321801438,,2024-06-27,,,,,,I,2026-01-13,2024-06-27,대구광역시,북구,대구광역시_북구,ok
이쁘개,345000004920240011,000,3450000,영업/정상,정상,1,0,0.0,"대구광역시 북구 팔거천동로**길 **, *층 (동천동)",41427.0,대구광역시 북구 동천동 ***-*,,35.9384394682533,128.55960489402446,070-7576-4554,2024-07-09,,,,,,I,2026-01-13,2024-08-29,대구광역시,북구,대구광역시_북구,ok
따숩개하우스,345000004920240013,000,3450000,영업/정상,정상,1,0,0.0,대구광역시 북구 대현남로 ** (대현동),41574.0,대구광역시 북구 대현동 ***-**,,35.88014434238466,128.60487853414492,,2024-07-30,,,,,,I,2026-01-13,2024-07-30,대구광역시,북구,대구광역시_북구,ok
댕컷,345000004920240014,000,3450000,영업/정상,정상,1,0,0.0,"대구광역시 북구 대현남로 **, *층 (대현동)",41570.0,대구광역시 북구 대현동 ***-**,,35.88173510929743,128.60807211430847,,2024-10-23,,,,,,I,2026-01-13,2024-10-23,대구광역시,북구,대구광역시_북구,ok
도근도근,345000004920240015,000,3450000,영업/정상,정상,1,0,0.0,"대구광역시 북구 칠성남로 ** (고성동*가, 대구 오페라 스위첸)",41597.0,대구광역시 북구 고성동*가 *** 대구 오페라 스위첸,,35.91501,128.58203,,2024-11-01,,,,,,I,2026-01-13,2024-11-01,대구광역시,북구,대구광역시_북구,centroid_fallback
어서왈왈,345000004920240016,000,3450000,영업/정상,정상,1,0,0.0,"대구광역시 북구 동북로 *** (산격동, 양우내안애아파트)",41519.0,대구광역시 북구 산격동 **** 양우내안애아파트,,35.91501,128.58203,,2024-11-01,,,,,,I,2026-01-13,2024-11-01,대구광역시,북구,대구광역시_북구,centroid_fallback
도기그루밍,345000004920250001,000,3450000,영업/정상,정상,1,0,0.0,"대구광역시 북구 동천로**길 **-**, ***호 (동천동)",41422.0,대구광역시 북구 동천동 ***-*,,35.94389328161986,128.55738145064794,,2025-01-20,,,,,,I,2026-01-13,2025-01-20,대구광역시,북구,대구광역시_북구,ok
아미야 아롱아,345000004920250002,000,3450000,영업/정상,정상,1,0,0.0,대구광역시 북구 성북로 **-* (침산동),41547.0,대구광역시 북구 침산동 ***-*,,35.89029071362745,128.58510378898256,,2025-01-22,,,,,,I,2026-01-13,2025-01-22,대구광역시,북구,대구광역시_북구,ok
러비퍼피,345000004920250003,000,3450000,영업/정상,정상,1,0,0.0,"대구광역시 북구 학정로***길 **, 상가동 ***호 (학정동, 학정청아람)",41415.0,대구광역시 북구 학정동 *** 학정청아람,,35.91501,128.58203,,2025-03-11,,,,,,I,2026-01-13,2025-03-11,대구광역시,북구,대구광역시_북구,centroid_fallback
개이뻐,345000004920250004,000,3450000,영업/정상,정상,1,0,0.0,"대구광역시 북구 영송로 **, ***호 (태전동)",41452.0,대구광역시 북구 태전동 ****,,35.91501,128.58203,,2025-04-14,,,,,,I,2026-01-13,2025-04-14,대구광역시,북구,대구광역시_북구,centroid_fallback
파우스애견미용실,345000004920250005,000,3450000,영업/정상,정상,1,0,0.0,"대구광역시 북구 공항로 **, 나동 *호 (복현동, 복현동장미아파트)",41525.0,대구광역시 북구 복현동 *** 복현동장미아파트,,35.91501,128.58203,,2025-05-14,,,,,,I,2026-01-13,2025-05-14,대구광역시,북구,대구광역시_북구,centroid_fallback
커들그루밍,345000004920250006,000,3450000,영업/정상,정상,1,0,0.0,대구광역시 북구 구암로**길 **-* (구암동),41432.0,대구광역시 북구 구암동 ***-*,,35.93281464270941,128.5636406609254,,2025-06-10,,,,,,I,2026-01-13,2025-06-10,대구광역시,북구,대구광역시_북구,ok
프레댕또,345000004920250007,000,3450000,영업/정상,정상,1,0,0.0,"대구광역시 북구 매전로 **-*, *층 (태전동)",41471.0,대구광역시 북구 태전동 ****,,35.91501,128.58203,,2025-07-29,,,,,,I,2026-01-13,2025-07-29,대구광역시,북구,대구광역시_북구,centroid_fallback
가나디,345000004920250008,000,3450000,영업/정상,정상,1,0,0.0,대구광역시 북구 고성로 *** (고성동*가),41594.0,대구광역시 북구 고성동*가 **-*,,35.880149953279265,128.5853779899994,,2025-09-08,,,,,,I,2026-01-13,2025-09-08,대구광역시,북구,대구광역시_북구,ok
플러피유,345000004920250009,000,3450000,영업/정상,정상,1,0,0.0,"대구광역시 북구 팔거천동로 **, ***동 *층 ***호 (구암동, 칠곡미래타운)",41463.0,대구광역시 북구 구암동 ***-* 칠곡미래타운,,35.928945891980696,128.55475208259531,,2025-09-17,,,,,,I,2026-01-13,2025-09-17,대구광역시,북구,대구광역시_북구,ok
멍무르다,345000004920250010,000,3450000,영업/정상,정상,1,0,0.0,"대구광역시 북구 동변로**길 **, ***호 (동변동)",41412.0,대구광역시 북구 동변동 ***-*,,35.92279498452381,128.60081763211602,,2025-11-12,,,,,,I,2026-01-13,2025-11-12,대구광역시,북구,대구광역시_북구,ok
댕글몽글,345000004920250011,000,3450000,영업/정상,정상,1,0,0.0,"대구광역시 북구 태전로 *, *층 (태전동)",41458.0,대구광역시 북구 태전동 ***-*,,35.920693185907155,128.5458102766695,,2025-12-01,,,,,,I,2026-01-13,2025-12-01,대구광역시,북구,대구광역시_북구,ok
멍 끌레르,345000004920250012,000,3450000,영업/정상,정상,1,0,0.0,"대구광역시 북구 서변로 **, ***동 ***호 (서변동, 화성리버파크*단지)",41475.0,대구광역시 북구 서변동 **** 화성리버파크*단지,,35.91501,128.58203,,2025-12-29,,,,,,I,2026-01-13,2025-12-30,대구광역시,북구,대구광역시_북구,centroid_fallback
퍼플리독,345000004920260001,000,3450000,영업/정상,정상,1,0,0.0,"대구광역시 북구 칠곡중앙대로 ***, ***호 (읍내동, 대구읍내 행복주택)",41438.0,대구광역시 북구 읍내동 **** 대구읍내 행복주택,,35.91501,128.58203,,2026-01-07,,,,,,I,2026-01-13,2026-01-07,대구광역시,북구,대구광역시_북구,centroid_fallback
딩굴댕굴 애견호텔&유치원 대구점,345000004920260002,000,3450000,영업/정상,정상,1,0,0.0,"대구광역시 북구 연경지묘로 *, ***호 (연경동)",41409.0,대구광역시 북구 연경동 ***-*,,35.9420517507137,128.61527891163266,,2026-01-19,,,,,,I,2026-01-20,2026-01-19,대구광역시,북구,대구광역시_북구,ok
싱글몽글,345000004920260003,000,3450000,영업/정상,정상,1,0,0.0,"대구광역시 북구 서변로*길 *-*, ***호 (서변동)",41477.0,대구광역시 북구 서변동 ****-**,,35.919584999435635,128.59596880762447,,2026-01-26,,,,,,I,2026-01-27,2026-01-26,대구광역시,북구,대구광역시_북구,ok
동그리그루밍,345000004920260004,000,3450000,영업/정상,정상,1,0,0.0,"대구광역시 북구 내곡로 **, ***호 (사수동)",41493.0,대구광역시 북구 사수동 ***,,35.91501,128.58203,,2026-02-02,,,,,,I,2026-02-03,2026-02-02,대구광역시,북구,대구광역시_북구,centroid_fallback
와이(y) 동물병원,346000004920180006,000,3460000,영업/정상,정상,1,0,0.0,대구광역시 수성구 달구벌대로 ****-* (시지동),42255.0,대구광역시 수성구 시지동 ***-**,,35.84427,128.63995,,2018-04-20,,,,,,I,2026-01-13,2022-04-28,대구광역시,수성구,대구광역시_수성구,centroid_fallback
이뻐질개 애견미용실,346000004920180007,000,3460000,영업/정상,정상,1,0,0.0,대구광역시 수성구 세진로 ** (범어동),42031.0,대구광역시 수성구 범어동 ***-*,,35.862359675377185,128.63947957875888,053-754-8077,2018-04-20,,,,,,I,2026-01-13,2022-04-28,대구광역시,수성구,대구광역시_수성구,ok
샴푸하는 강아지,346000004920180009,000,3460000,영업/정상,정상,1,0,0.0,대구광역시 수성구 세진로 **-* (만촌동),42055.0,대구광역시 수성구 만촌동 ****-*,,35.86314742193499,128.64094742805662,,2018-04-20,,,,,,I,2026-01-13,2022-04-28,대구광역시,수성구,대구광역시_수성구,ok
마리오펫,346000004920180015,000,3460000,영업/정상,정상,1,0,0.0,대구광역시 수성구 무학로**길 ** (두산동),42174.0,대구광역시 수성구 두산동 ***-*,,35.832032405216175,128.62064371123415,,2018-04-23,,,,,,I,2026-01-13,2022-04-28,대구광역시,수성구,대구광역시_수성구,ok
그루비펫,346000004920180016,000,3460000,영업/정상,정상,1,0,0.0,"대구광역시 수성구 지범로 **-*, 영덕빌딩 (지산동)",42187.0,대구광역시 수성구 지산동 ****-** 영덕빌딩,,35.826749100986525,128.6292745252031,,2018-04-23,,,,,,I,2026-01-13,2024-10-02,대구광역시,수성구,대구광역시_수성구,ok
조이풀 그루밍,346000004920180022,000,3460000,영업/정상,정상,1,0,0.0,대구광역시 수성구 동원로**길 ** (만촌동),42037.0,대구광역시 수성구 만촌동 ****-**,,35.87272710004511,128.6391034581152,053-754-6668,2018-05-11,,,,,,I,2026-01-13,2022-04-28,대구광역시,수성구,대구광역시_수성구,ok
선 동물병원,346000004920180024,000,3460000,영업/정상,정상,1,0,0.0,대구광역시 수성구 화랑로 *** (만촌동),42037.0,대구광역시 수성구 만촌동 ****-**,,35.87269385336859,128.63788490063328,053-746-0031,2018-05-11,,,,,,I,2026-01-13,2022-04-28,대구광역시,수성구,대구광역시_수성구,ok
금강동물병원,346000004920180025,000,3460000,영업/정상,정상,1,0,0.0,"대구광역시 수성구 동원로 ***, 지하*층 (만촌동)",42037.0,대구광역시 수성구 만촌동 ****-**,,35.87190407131216,128.63579780123817,053-746-1111,2018-05-11,,,,,,I,2026-01-13,2023-04-05,대구광역시,수성구,대구광역시_수성구,ok
펫동물병원,346000004920180027,000,3460000,영업/정상,정상,1,0,0.0,대구광역시 수성구 달구벌대로 **** (노변동),42256.0,대구광역시 수성구 노변동 *-*,,35.841844771559934,128.70087913483752,053-474-9820,2018-05-11,,,,,,U,2026-03-05,2026-03-04,대구광역시,수성구,대구광역시_수성구,ok
펫플러스(Pet Plus),346000004920180029,000,3460000,영업/정상,정상,1,0,0.0,대구광역시 수성구 범안로 ** (범물동),42211.0,대구광역시 수성구 범물동 ****-*,,35.81784147729,128.63971935953035,053-249-1600,2018-05-17,,,,,,I,2026-01-13,2022-04-28,대구광역시,수성구,대구광역시_수성구,ok
개님은 털빨,346000004920180030,000,3460000,영업/정상,정상,1,0,0.0,"대구광역시 수성구 수성로**길 **, *층 (상동)",42160.0,대구광역시 수성구 상동 **-*,,35.83941885732599,128.61286370132464,053-767-2794,2018-05-17,,,,,,I,2026-01-13,2022-04-28,대구광역시,수성구,대구광역시_수성구,ok
신세계동물병원,346000004920180035,000,3460000,영업/정상,정상,1,0,0.0,"대구광역시 수성구 들안로 ***, 효정빌딩 (수성동*가)",42138.0,대구광역시 수성구 수성동*가 ***-** 효정빌딩,,35.85343712803213,128.61737547421654,053-751-6693,2018-05-24,,,,,,I,2026-01-13,2023-07-10,대구광역시,수성구,대구광역시_수성구,ok
제니스동물병원,346000004920180041,000,3460000,영업/정상,정상,1,0,0.0,대구광역시 수성구 달구벌대로 **** (범어동),42029.0,대구광역시 수성구 범어동 ***-**,,35.859254204685655,128.6334300145294,053-756-8290,2018-07-04,,,,,,I,2026-01-13,2022-04-28,대구광역시,수성구,대구광역시_수성구,ok
사랑하개,346000004920180042,000,3460000,영업/정상,정상,1,0,0.0,대구광역시 수성구 지범로 ***-** (범물동),42242.0,대구광역시 수성구 범물동 ****-**,,35.817670043018055,128.6442023384762,053-784-7794,2018-07-04,,,,,,I,2026-01-13,2022-04-28,대구광역시,수성구,대구광역시_수성구,ok
하룻강아지,346000004920180043,000,3460000,영업/정상,정상,1,0,0.0,대구광역시 수성구 명덕로 *** (수성동*가),42132.0,대구광역시 수성구 수성동*가 **-*,,35.854225127360884,128.61584324893033,053-767-0345,2018-07-09,,,,,,I,2026-01-13,2022-04-28,대구광역시,수성구,대구광역시_수성구,ok
마론애견,346000004920180045,000,3460000,영업/정상,정상,1,0,0.0,대구광역시 수성구 무학로**길 *** (두산동),42175.0,대구광역시 수성구 두산동 ***-*,,35.835113181961674,128.62121177319267,053-766-4041,2018-07-09,,,,,,I,2026-01-13,2022-04-28,대구광역시,수성구,대구광역시_수성구,ok
동일애견샵,346000004920180048,000,3460000,영업/정상,정상,1,0,0.0,"대구광역시 수성구 수성로 **, 상가A동 ***호 (상동, 수성동일하이빌레이크시티아파트)",42166.0,대구광역시 수성구 상동 *** 수성동일하이빌레이크시티아파트,,35.84427,128.63995,,2018-07-09,,,,,,I,2026-01-13,2022-04-28,대구광역시,수성구,대구광역시_수성구,centroid_fallback
퍼피애견샵,346000004920180053,000,3460000,영업/정상,정상,1,0,0.0,"대구광역시 수성구 지범로 **, 퍼피애견샵 (지산동)",42187.0,대구광역시 수성구 지산동 ****-** 퍼피애견샵,,35.826159334906734,128.63085524391568,053-782-7940,2018-07-26,,,,,,I,2026-01-13,2022-04-28,대구광역시,수성구,대구광역시_수성구,ok
일랑일랑,346000004920180055,000,3460000,영업/정상,정상,1,0,0.0,대구광역시 수성구 들안로**길 * (두산동),42169.0,대구광역시 수성구 두산동 **-*,,35.837088637489515,128.6176359182639,,2018-07-26,,,,,,I,2026-01-13,2024-01-30,대구광역시,수성구,대구광역시_수성구,ok
퍼피타임,346000004920180057,000,3460000,영업/정상,정상,1,0,0.0,대구광역시 수성구 청수로*길 ** (중동),42155.0,대구광역시 수성구 중동 ***-*,,35.842530459631824,128.61373812263716,053-763-7008,2018-07-31,,,,,,I,2026-01-13,2022-04-28,대구광역시,수성구,대구광역시_수성구,ok
Yellow,346000004920180061,000,3460000,영업/정상,정상,1,0,0.0,대구광역시 수성구 무학로**길 ** (지산동),42185.0,대구광역시 수성구 지산동 ****-*,,35.83537431302159,128.62518381117596,053-764-4426,2018-09-03,,,,,,I,2026-01-13,2022-04-28,대구광역시,수성구,대구광역시_수성구,ok
퍼피퍼피,346000004920180065,000,3460000,영업/정상,정상,1,0,0.0,대구광역시 수성구 무학로**길 ** (지산동),42185.0,대구광역시 수성구 지산동 ****-*,,35.83371530494953,128.62670890855665,,2018-09-12,,,,,,I,2026-01-13,2022-04-28,대구광역시,수성구,대구광역시_수성구,ok
애견미용사 장윤희,346000004920180069,000,3460000,영업/정상,정상,1,0,0.0,대구광역시 수성구 수성로**길 **(중동),42133.0,대구광역시 수성구 중동 **-*,,35.84909243440721,128.61605968696236,,2018-09-14,,,,,,I,2026-01-13,2022-04-28,대구광역시,수성구,대구광역시_수성구,ok
베트문 동물병원,346000004920180072,000,3460000,영업/정상,정상,1,0,0.0,대구광역시 수성구 지범로**길 ** (범물동),42198.0,대구광역시 수성구 범물동 ****-*,,35.82052128042678,128.64211864148632,,2018-09-21,,,,,,I,2026-01-13,2022-04-28,대구광역시,수성구,대구광역시_수성구,ok
곰아저씨동물병원,346000004920180073,000,3460000,영업/정상,정상,1,0,0.0,"대구광역시 수성구 들안로 ***, *층 (수성동*가)",42016.0,대구광역시 수성구 수성동*가 ****-**,,35.86163680558874,128.61802864491304,,2018-10-02,,,,,,I,2026-01-13,2022-11-08,대구광역시,수성구,대구광역시_수성구,ok
알토,346000004920180080,000,3460000,영업/정상,정상,1,0,0.0,대구광역시 수성구 수성로**길 ***-** (상동),42161.0,대구광역시 수성구 상동 **-**,,35.83575524965365,128.61454108117036,,2018-11-22,,,,,,I,2026-01-13,2022-04-28,대구광역시,수성구,대구광역시_수성구,ok
산책가는길,346000004920180082,000,3460000,영업/정상,정상,1,0,0.0,대구광역시 수성구 청수로 *** (황금동),42179.0,대구광역시 수성구 황금동 ***-*,,35.84060538220628,128.63621940556445,,2018-12-10,,,,,,I,2026-01-13,2023-11-01,대구광역시,수성구,대구광역시_수성구,ok
애견가을농장,346000004920190002,000,3460000,영업/정상,정상,1,0,0.0,대구광역시 수성구 성동로 ** (사월동),42264.0,대구광역시 수성구 사월동 **,,35.84427,128.63995,,2019-01-09,,,,,,I,2026-01-13,2022-04-28,대구광역시,수성구,대구광역시_수성구,centroid_fallback
개편한 세상,346000004920190004,000,3460000,영업/정상,정상,1,0,0.0,대구광역시 수성구 지범로**길 ** (지산동),42193.0,대구광역시 수성구 지산동 ****-*,,35.82372730111136,128.6409350656044,053-782-5008,2019-01-24,,,,,,I,2026-01-13,2022-04-28,대구광역시,수성구,대구광역시_수성구,ok
내개로와,346000004920190006,000,3460000,영업/정상,정상,1,0,0.0,대구광역시 수성구 시지로 ** (시지동),42251.0,대구광역시 수성구 시지동 ***-*,,35.83731637152057,128.69650183176662,,2019-01-31,,,,,,I,2026-01-13,2023-12-29,대구광역시,수성구,대구광역시_수성구,ok
러블리펫,346000004920190009,000,3460000,영업/정상,정상,1,0,0.0,"대구광역시 수성구 달구벌대로 ****, 상가***동 *호 (신매동, 신매동 효성 백년가약 (청))",42271.0,대구광역시 수성구 신매동 *** 신매동 효성 백년가약 (청) 상가***동 *호,,35.84427,128.63995,053-795-7771,2019-02-20,,,,,,I,2026-01-13,2022-04-28,대구광역시,수성구,대구광역시_수성구,centroid_fallback
아지발바닥,346000004920190012,000,3460000,영업/정상,정상,1,0,0.0,대구광역시 수성구 지범로 ** (지산동),42189.0,대구광역시 수성구 지산동 ****-*,,35.82564595357301,128.63220474447593,,2019-03-05,,,,,,I,2026-01-13,2022-04-28,대구광역시,수성구,대구광역시_수성구,ok
누베,346000004920190022,000,3460000,영업/정상,정상,1,0,0.0,"대구광역시 수성구 천을로 **, ***동 ***호 (시지동, 시지미래하이츠)",42261.0,대구광역시 수성구 시지동 ***-* 시지미래하이츠(***호동편*칸) ***동 ***호,,35.84556771483717,128.6945441997484,,2019-04-05,,,,,,I,2026-01-13,2022-04-28,대구광역시,수성구,대구광역시_수성구,ok
#the예쁘개,346000004920190023,000,3460000,영업/정상,정상,1,0,0.0,"대구광역시 수성구 월드컵로*안길 **, *층 (대흥동)",42250.0,대구광역시 수성구 대흥동 ***-* *층,,35.83217639452876,128.68532169352864,,2019-04-16,,,,,,I,2026-01-13,2024-01-30,대구광역시,수성구,대구광역시_수성구,ok
ANOTHER DOG,346000004920190026,000,3460000,영업/정상,정상,1,0,0.0,대구광역시 수성구 들안로**길 **-** (두산동),42169.0,대구광역시 수성구 두산동 **-*,,35.83777598805122,128.6196870143606,,2019-05-22,,,,,,I,2026-01-13,2022-04-28,대구광역시,수성구,대구광역시_수성구,ok
체리쉬독,346000004920190029,000,3460000,영업/정상,정상,1,0,0.0,대구광역시 수성구 수성로 ** (상동),42164.0,대구광역시 수성구 상동 ***-*,,35.834055342216125,128.61192572130415,,2019-07-02,,,,,,I,2026-01-13,2022-04-28,대구광역시,수성구,대구광역시_수성구,ok
MUNG MOO,346000004920190044,000,3460000,영업/정상,정상,1,0,0.0,"대구광역시 수성구 청호로**길 **, *층 (범어동)",42091.0,대구광역시 수성구 범어동 **-** *층,,35.85799875076976,128.64318141491648,,2019-12-27,,,,,,I,2026-01-13,2022-12-13,대구광역시,수성구,대구광역시_수성구,ok
치치독,346000004920200003,000,3460000,영업/정상,정상,1,0,0.0,"대구광역시 수성구 달구벌대로***길 ** (매호동, 시지우방하이츠)",42270.0,대구광역시 수성구 매호동 **** 시지우방하이츠상가 ***동 ***호,,35.84427,128.63995,,2020-01-28,,,,,,I,2026-01-13,2024-02-07,대구광역시,수성구,대구광역시_수성구,centroid_fallback
진보퍼피,346000004920200007,000,3460000,영업/정상,정상,1,0,0.0,대구광역시 수성구 지범로**길 ** (지산동),42196.0,대구광역시 수성구 지산동 ****-*,,35.823759600664715,128.63719020963495,053-783-3223,2020-02-14,,,,,,I,2026-01-13,2022-04-28,대구광역시,수성구,대구광역시_수성구,ok
멍분의 멍,346000004920200016,000,3460000,영업/정상,정상,1,0,0.0,대구광역시 수성구 신천동로 ** (상동),42165.0,대구광역시 수성구 상동 ***-*,,35.83400111605999,128.60697765343892,,2020-05-11,,,,,,I,2026-01-13,2022-04-28,대구광역시,수성구,대구광역시_수성구,ok
몽그라밍,346000004920200020,000,3460000,영업/정상,정상,1,0,0.0,"대구광역시 수성구 지범로 **-*, *층 (지산동)",42204.0,대구광역시 수성구 지산동 ****-**,,35.82620186884894,128.628859411638,,2020-07-14,,,,,,I,2026-01-13,2025-04-01,대구광역시,수성구,대구광역시_수성구,ok
작은동물원,346000004920200021,000,3460000,영업/정상,정상,1,0,0.0,대구광역시 수성구 동원로 **(만촌동),42048.0,대구광역시 수성구 만촌동 ***-**,,35.86443779592177,128.63948545256395,,2020-07-14,,,,,,I,2026-01-13,2022-05-19,대구광역시,수성구,대구광역시_수성구,ok
펫파민트,346000004920200026,000,3460000,영업/정상,정상,1,0,0.0,"대구광역시 수성구 신매로 *, *층 (신매동)",42287.0,대구광역시 수성구 신매동 ***-*,,35.83061023387719,128.70660456754922,,2020-09-09,,,,,,I,2026-01-13,2022-04-28,대구광역시,수성구,대구광역시_수성구,ok
미미펫 그루밍샵,346000004920200030,000,3460000,영업/정상,정상,1,0,0.0,"대구광역시 수성구 파동로**길 **, *층 *호 (파동)",42230.0,대구광역시 수성구 파동 **-**,,35.821055755443055,128.61522993491923,,2020-09-28,,,,,,I,2026-01-13,2022-04-28,대구광역시,수성구,대구광역시_수성구,ok
마음을 읽어주는 마음동물병원,346000004920200031,000,3460000,영업/정상,정상,1,0,0.0,"대구광역시 수성구 화랑로 **, *층 (만촌동)",42039.0,대구광역시 수성구 만촌동 ***-*,,35.86799741312274,128.6311624586455,,2020-10-14,,,,,,I,2026-01-13,2022-04-28,대구광역시,수성구,대구광역시_수성구,ok
토토미용실,346000004920210010,000,3460000,영업/정상,정상,1,0,0.0,"대구광역시 수성구 노변공원로 **, 상가***동 *층 *호 (시지동, 노변다숲아파트)",42259.0,대구광역시 수성구 시지동 *** 노변다숲아파트 *층 상가***동 *호,,35.84427,128.63995,,2021-06-22,,,,,,I,2026-01-13,2022-04-28,대구광역시,수성구,대구광역시_수성구,centroid_fallback
원쿡강아지유치원,346000004920210012,L00,3460000,영업/정상,정상,1,0,0.0,"대구광역시 수성구 팔현길 ***-**, 동촌휴게시설 지하*층 (만촌동)",42064.0,대구광역시 수성구 만촌동 **-* 동촌휴게시설,,35.87419757444566,128.6554328624063,,2021-07-20,,,,,,I,2026-01-13,2025-07-10,대구광역시,수성구,대구광역시_수성구,ok
또리네 Petsalon,346000004920210013,000,3460000,영업/정상,정상,1,0,0.0,"대구광역시 수성구 무학로**길 **, *층 (두산동)",42174.0,대구광역시 수성구 두산동 ***-** *층,,35.83242386918221,128.62068435796607,,2021-08-26,,,,,,I,2026-01-13,2022-04-28,대구광역시,수성구,대구광역시_수성구,ok
멍멍아 놀자,346000004920210015,000,3460000,영업/정상,정상,1,0,0.0,대구광역시 수성구 시지로*길 **-**(시지동),42253.0,대구광역시 수성구 시지동 ***-*,,35.84200561260886,128.69588968278666,,2021-09-17,,,,,,I,2026-01-13,2022-04-28,대구광역시,수성구,대구광역시_수성구,ok
펫밀리쌀롱,346000004920210016,000,3460000,영업/정상,정상,1,0,0.0,"대구광역시 수성구 들안로**길 **, *층 (수성동*가)",42004.0,대구광역시 수성구 수성동*가 ****-**,,35.86360037273559,128.61619014157273,,2021-10-05,,,,,,I,2026-01-13,2024-01-30,대구광역시,수성구,대구광역시_수성구,ok
애견시대,346000004920210019,000,3460000,영업/정상,정상,1,0,0.0,대구광역시 수성구 수성로 ***(수성동*가),42131.0,대구광역시 수성구 수성동*가 ***-*,,35.85324693082421,128.61328237506098,053-764-2138,2021-12-07,,,,,,I,2026-01-13,2022-04-28,대구광역시,수성구,대구광역시_수성구,ok
더 스마일독,346000004920220002,000,3460000,영업/정상,정상,1,0,0.0,"대구광역시 수성구 수성로 **-*, *층 (상동)",42201.0,대구광역시 수성구 상동 ***-**,,35.82870699544221,128.6105570903311,,2022-03-04,,,,,,I,2026-01-13,2022-04-28,대구광역시,수성구,대구광역시_수성구,ok
포숑포숑,346000004920220004,000,3460000,영업/정상,정상,1,0,0.0,"대구광역시 수성구 용학로**안길 *, *층 ***호 (두산동)",42216.0,대구광역시 수성구 두산동 ***-** *층 ***호,,35.82442792806512,128.62531901566402,,2022-07-15,,,,,,I,2026-01-13,2022-07-15,대구광역시,수성구,대구광역시_수성구,ok
Uzzu 우쭈,346000004920220005,000,3460000,영업/정상,정상,1,0,0.0,"대구광역시 수성구 들안로**길 **, ***호 (황금동)",42148.0,대구광역시 수성구 황금동 ***-* ***호,,35.84273948333082,128.6180276244814,,2022-07-18,,,,,,I,2026-01-13,2022-07-18,대구광역시,수성구,대구광역시_수성구,ok
르시앙,346000004920220007,000,3460000,영업/정상,정상,1,0,0.0,"대구광역시 수성구 청솔로**길 **, 상가동 지하*층 B***호 (범어동, 범어에일린의뜰)",42139.0,대구광역시 수성구 범어동 **** 범어에일린의뜰 지하*층 상가동 B***호,,35.84427,128.63995,,2022-08-26,,,,,,I,2026-01-13,2022-08-29,대구광역시,수성구,대구광역시_수성구,centroid_fallback
버들강아지,346000004920220008,000,3460000,영업/정상,정상,1,0,0.0,"대구광역시 수성구 무학로**안길 **, *층 (두산동)",42174.0,대구광역시 수성구 두산동 ***-* *층,,35.83100337352242,128.62002371013455,,2022-08-29,,,,,,I,2026-01-13,2022-08-29,대구광역시,수성구,대구광역시_수성구,ok
차차언니,346000004920220009,000,3460000,영업/정상,정상,1,0,0.0,"대구광역시 수성구 노변공원로 **-*, *층 (노변동)",42258.0,대구광역시 수성구 노변동 *** *층,,35.84427,128.63995,,2022-08-30,,,,,,I,2026-01-13,2022-08-30,대구광역시,수성구,대구광역시_수성구,centroid_fallback
살롱드 베베,346000004920220011,000,3460000,영업/정상,정상,1,0,0.0,"대구광역시 수성구 국채보상로 ****, *층 (만촌동)",42049.0,대구광역시 수성구 만촌동 ***-** *층,,35.86657080592995,128.64397832714818,,2022-11-04,,,,,,I,2026-01-13,2022-11-04,대구광역시,수성구,대구광역시_수성구,ok
그루밍 아뜰리에,346000004920220013,000,3460000,영업/정상,정상,1,0,0.0,대구광역시 수성구 국채보상로 ***(범어동),42021.0,대구광역시 수성구 범어동 ***-**,,35.86710083805955,128.63276749740817,,2022-11-09,,,,,,I,2026-01-13,2022-11-09,대구광역시,수성구,대구광역시_수성구,ok
도그미용실,346000004920220014,000,3460000,영업/정상,정상,1,0,0.0,"대구광역시 수성구 고산로*길 **, *층 (신매동)",42287.0,대구광역시 수성구 신매동 ***-* *층,,35.83311820234037,128.70466825217278,,2022-11-14,,,,,,I,2026-01-13,2022-11-15,대구광역시,수성구,대구광역시_수성구,ok
도그도그샵,346000004920220015,000,3460000,영업/정상,정상,1,0,0.0,"대구광역시 수성구 달구벌대로***길 **-**, *층 (만촌동)",42068.0,대구광역시 수성구 만촌동 ***-** *층,,35.85713088883197,128.64856394882307,,2022-11-25,,,,,,I,2026-01-13,2022-11-25,대구광역시,수성구,대구광역시_수성구,ok
파이드포포,346000004920220017,000,3460000,영업/정상,정상,1,0,0.0,"대구광역시 수성구 수성로**길 **-**, *층 (상동)",42167.0,대구광역시 수성구 상동 ***-** *층,,35.83074920017325,128.6126303821882,,2022-12-12,,,,,,I,2026-01-13,2024-01-31,대구광역시,수성구,대구광역시_수성구,ok
도그라운드,346000004920220018,000,3460000,영업/정상,정상,1,0,0.0,"대구광역시 수성구 수성로**길 **, *층 (상동)",42164.0,대구광역시 수성구 상동 ***-* *층,,35.83241392729492,128.6137672915959,,2022-12-22,,,,,,I,2026-01-13,2022-12-22,대구광역시,수성구,대구광역시_수성구,ok
멍멍블리(mungmungvely),346000004920220019,000,3460000,영업/정상,정상,1,0,0.0,"대구광역시 수성구 들안로**길 **, *층 (두산동)",42172.0,대구광역시 수성구 두산동 **-* *층,,35.83599361125292,128.61815888620671,,2022-12-27,,,,,,I,2026-01-13,2023-09-12,대구광역시,수성구,대구광역시_수성구,ok
교육협동조합 세움,346000004920230002,L00,3460000,영업/정상,정상,1,0,0.0,대구광역시 수성구 유니버시아드로 **-**(삼덕동),42250.0,대구광역시 수성구 삼덕동 ***-*,,35.83365649182648,128.67456381460397,070-4151-0179,2023-02-14,,,,,,I,2026-01-13,2023-02-16,대구광역시,수성구,대구광역시_수성구,ok
쁘리에숑,346000004920230003,000,3460000,영업/정상,정상,1,0,0.0,대구광역시 수성구 들안로**길 **(수성동*가),42142.0,대구광역시 수성구 수성동*가 ***-*,,35.8514497211831,128.61804456523657,,2023-03-27,,,,,,I,2026-01-13,2023-03-27,대구광역시,수성구,대구광역시_수성구,ok
다듬,346000004920230004,000,3460000,영업/정상,정상,1,0,0.0,"대구광역시 수성구 달구벌대로***길 **, ***동 ***,***호 (신매동, 아이프라임신매아파트)",42271.0,대구광역시 수성구 신매동 *** 아이프라임신매아파트,,35.84427,128.63995,,2023-04-18,,,,,,I,2026-01-13,2023-04-18,대구광역시,수성구,대구광역시_수성구,centroid_fallback
하트애견,346000004920230005,000,3460000,영업/정상,정상,1,0,0.0,대구광역시 수성구 들안로**길 ** (황금동),42145.0,대구광역시 수성구 황금동 ***-**,,35.844545402222444,128.61955782761757,,2023-05-01,,,,,,I,2026-01-13,2023-05-01,대구광역시,수성구,대구광역시_수성구,ok
우리강아지,346000004920230006,000,3460000,영업/정상,정상,1,0,0.0,"대구광역시 수성구 고산로**길 **, 상가동 *층 ***호 (신매동, 시지에덴타운)",42286.0,대구광역시 수성구 신매동 ***-* 시지에덴타운,,35.833885665349456,128.70591152046708,,2023-05-10,,,,,,I,2026-01-13,2023-05-10,대구광역시,수성구,대구광역시_수성구,ok
단아펫,346000004920230007,000,3460000,영업/정상,정상,1,0,0.0,"대구광역시 수성구 신매로*길 *-*, *층 (신매동)",42283.0,대구광역시 수성구 신매동 ***-**,,35.83493651396106,128.70885260775222,,2023-05-19,,,,,,I,2026-01-13,2023-05-19,대구광역시,수성구,대구광역시_수성구,ok
리온동물병원,346000004920230008,000,3460000,영업/정상,정상,1,0,0.0,"대구광역시 수성구 동대구로 **, *,*층 (지산동)",42176.0,대구광역시 수성구 지산동 ***-*,,35.83594158324446,128.62438995751648,053-768-7975,2023-06-02,,,,,,I,2026-01-13,2023-06-05,대구광역시,수성구,대구광역시_수성구,ok
헬로우 멍멍,346000004920230009,000,3460000,영업/정상,정상,1,0,0.0,대구광역시 수성구 달구벌대로***길 * (수성동*가),42016.0,대구광역시 수성구 수성동*가 ****-**,,35.860419901027505,128.61958249355686,,2023-09-07,,,,,,I,2026-01-13,2023-09-07,대구광역시,수성구,대구광역시_수성구,ok
지오애견미용샵,346000004920230010,000,3460000,영업/정상,정상,1,0,0.0,"대구광역시 수성구 범안로**길 **, ***호 (범물동)",42241.0,대구광역시 수성구 범물동 ****-*,,35.81675805205415,128.64676925048198,,2023-11-29,,,,,,I,2026-01-13,2023-11-29,대구광역시,수성구,대구광역시_수성구,ok
골드독스,346000004920240001,000,3460000,영업/정상,정상,1,0,0.0,"대구광역시 수성구 청호로 ***-*, *층 (황금동)",42084.0,대구광역시 수성구 황금동 **-*,,35.845677716260965,128.63945097289076,070-4647-2950,2024-01-08,,,,,,I,2026-01-13,2024-01-08,대구광역시,수성구,대구광역시_수성구,ok
후스독,346000004920240002,000,3460000,영업/정상,정상,1,0,0.0,"대구광역시 수성구 들안로 ***, *층 (중동)",42151.0,대구광역시 수성구 중동 **-*,,35.84610130354885,128.61648395741852,,2024-01-09,,,,,,I,2026-01-13,2024-01-09,대구광역시,수성구,대구광역시_수성구,ok
도루몽실,346000004920240003,000,3460000,영업/정상,정상,1,0,0.0,대구광역시 수성구 들안로**길 **-** (황금동),42148.0,대구광역시 수성구 황금동 ***-*,,35.84279131732664,128.62008836134797,,2024-01-24,,,,,,I,2026-01-13,2024-01-24,대구광역시,수성구,대구광역시_수성구,ok
퍼피베이비,346000004920240004,000,3460000,영업/정상,정상,1,0,0.0,"대구광역시 수성구 달구벌대로 ****, 몽도르프 범어점, 왼쪽문 (만촌동)",42062.0,대구광역시 수성구 만촌동 ****-**,,35.85941661616661,128.64299964646855,,2024-02-21,,,,,,I,2026-01-13,2024-02-21,대구광역시,수성구,대구광역시_수성구,ok
감자동물병원,346000004920240005,000,3460000,영업/정상,정상,1,0,0.0,"대구광역시 수성구 달구벌대로 ****, *층 (매호동)",42268.0,대구광역시 수성구 매호동 ****-**,,35.84176355881214,128.7047993308181,053-795-5589,2024-03-04,,,,,,I,2026-01-13,2024-03-04,대구광역시,수성구,대구광역시_수성구,ok
피티 와 커트,346000004920240006,000,3460000,영업/정상,정상,1,0,0.0,"대구광역시 수성구 상화로 **-*, ***호 (상동)",42162.0,대구광역시 수성구 상동 **-**,,35.835222713624034,128.61559919107893,,2024-03-06,,,,,,I,2026-01-13,2024-03-06,대구광역시,수성구,대구광역시_수성구,ok
