BuildingNo,lon,Description,RoadName,RoadAddress,RiName,PetAllowedInfo,PetOnlyInfo,PetRestriction,LotNo,Dong,Sigungu,Sido,Name,PetExtraFee,PostalCode,OpeningHours,lat,AllowedPetSize,EntryFee,IsIndoor,IsOutdoor,PhoneNumber,ParkingAvailable,LotAddress,LastUpdated,Category1,Category2,Category3,Homepage,CloseDay,region_key,coord_status
19 번,126.886336,동물약국,동세로,경기도 고양시 덕양구 동세로 19,,Y,해당없음,제한사항 없음,352-1 번지,동산동,고양시 덕양구,경기도,1004 약국,없음,10598,월~금 09:00~18:00,37.64454276,모두 가능,변동,Y,N,02-381-5052,Y,경기도 고양시 덕양구 동산동 352-1,2022-11-30,반려동물업,반려의료,동물약국,정보없음,"매주 토, 일, 법정공휴일",경기도_고양시 덕양구,ok
508-68 번,125.996874,미술관,자은서부2길,전라남도 신안군 자은면 자은서부2길 508-68,백산리,N,해당없음,해당없음,633-54 번지,자은면,신안군,전라남도,1004섬수석미술관,없음,58831,화~일 09:00~18:00,34.8800925,해당없음,없음,N,N,061-240-8359,Y,전라남도 신안군 자은면 백산리 633-54,2025-03-24,반려동물업,반려동반여행,미술관,http://tour.shinan.go.kr/home/tour/theme_tour/theme_tour_17/theme_tour_17_01/page.wscms,매주 월요일,전라남도_신안군,ok
408 번,126.914837,동물약국,안양로,경기도 안양시 만안구 안양로 408,,Y,해당없음,제한사항 없음,856-4 번지,안양동,안양시 만안구,경기도,100세건강약국,없음,13989,"월~금 09:00~21:00, 토 09:00~20:00",37.40715043,모두 가능,변동,Y,N,031-465-1320,N,경기도 안양시 만안구 안양동 856-4,2022-11-30,반려동물업,반려의료,동물약국,정보없음,"매주 일요일, 법정공휴일",경기도_안양시 만안구,ok
24 번,126.903741,동물약국,양평로,서울특별시 영등포구 양평로 24,,Y,해당없음,제한사항 없음,217-4 번지,당산2동,영등포구,서울특별시,100세약국,없음,7223,"월~금 08:30~21:00, 토 08:30~18:30",37.53325958,모두 가능,변동,Y,N,02-2678-8217,N,서울특별시 영등포구 당산동6가 217-4,2022-11-30,반려동물업,반려의료,동물약국,정보없음,"매주 일요일, 법정공휴일",서울특별시_영등포구,ok
24 번,126.903741,동물약국,양평로,서울특별시 영등포구 양평로 24,,Y,해당없음,제한사항 없음,217-4 번지,당산2동,영등포구,서울특별시,100세약국,없음,7223,"월~금 08:30~21:00, 토 08:30~18:30",37.53325958,모두 가능,변동,Y,N,02-2678-8217,N,서울특별시 영등포구 당산동6가 217-4,2022-11-30,반려동물업,반려의료,동물약국,정보없음,"매주 일요일, 법정공휴일",서울특별시_영등포구,ok
24 번,126.903741,동물약국,양평로,서울특별시 영등포구 양평로 24,,Y,해당없음,제한사항 없음,217-4 번지,당산2동,영등포구,서울특별시,100세약국,없음,7223,"월~금 08:30~21:00, 토 08:30~18:30",37.53325958,모두 가능,변동,Y,N,02-2678-8217,N,서울특별시 영등포구 당산동6가 217-4,2022-11-30,반려동물업,반려의료,동물약국,정보없음,"매주 일요일, 법정공휴일",서울특별시_영등포구,ok
568 번,127.030911,동물약국,경수대로,경기도 수원시 팔달구 경수대로 568,,Y,해당없음,제한사항 없음,942-4 번지,인계동,수원시 팔달구,경기도,100세약국,없음,16484,"월~금 09:00~19:00, 토 09:00~15:00",37.27627151,모두 가능,변동,Y,N,031-239-4801,N,경기도 수원시 팔달구 인계동 942-4,2022-11-30,반려동물업,반려의료,동물약국,정보없음,"매주 일요일, 법정공휴일",경기도_수원시 팔달구,ok
568 번,127.030911,동물약국,경수대로,경기도 수원시 팔달구 경수대로 568,,Y,해당없음,제한사항 없음,942-4 번지,인계동,수원시 팔달구,경기도,100세약국,없음,16484,"월~금 09:00~19:00, 토 09:00~15:00",37.27627151,모두 가능,변동,Y,N,031-239-4801,N,경기도 수원시 팔달구 인계동 942-4,2022-11-30,반려동물업,반려의료,동물약국,정보없음,"매주 일요일, 법정공휴일",경기도_수원시 팔달구,ok
568 번,127.030911,동물약국,경수대로,경기도 수원시 팔달구 경수대로 568,,Y,해당없음,제한사항 없음,942-4 번지,인계동,수원시 팔달구,경기도,100세약국,없음,16484,"월~금 09:00~19:00, 토 09:00~15:00",37.27627151,모두 가능,변동,Y,N,031-239-4801,N,경기도 수원시 팔달구 인계동 942-4,2022-11-30,반려동물업,반려의료,동물약국,정보없음,"매주 일요일, 법정공휴일",경기도_수원시 팔달구,ok
892 번,126.708644,동물약국,남동대로,인천광역시 남동구 남동대로 892,,Y,해당없음,제한사항 없음,207-3 번지,간석동,남동구,인천광역시,100세약국,없음,21545,월~금 08:30~22:00,37.4620717,모두 가능,변동,Y,N,032-427-7585,N,인천광역시 남동구 간석동 207-3,2022-11-30,반려동물업,반려의료,동물약국,정보없음,"매주 토, 일",인천광역시_남동구,ok
892 번,126.708644,동물약국,남동대로,인천광역시 남동구 남동대로 892,,Y,해당없음,제한사항 없음,207-3 번지,간석동,남동구,인천광역시,100세약국,없음,21545,월~금 08:30~22:00,37.4620717,모두 가능,변동,Y,N,032-427-7585,N,인천광역시 남동구 간석동 207-3,2022-11-30,반려동물업,반려의료,동물약국,정보없음,"매주 토, 일",인천광역시_남동구,ok
892 번,126.708644,동물약국,남동대로,인천광역시 남동구 남동대로 892,,Y,해당없음,제한사항 없음,207-3 번지,간석동,남동구,인천광역시,100세약국,없음,21545,월~금 08:30~22:00,37.4620717,모두 가능,변동,Y,N,032-427-7585,N,인천광역시 남동구 간석동 207-3,2022-11-30,반려동물업,반려의료,동물약국,정보없음,"매주 토, 일",인천광역시_남동구,ok
11 번,127.016417,애견카페,다산로38길,서울특별시 중구 다산로38길 11,,Y,해당없음,제한사항 없음,292-152 번지,신당동,중구,서울특별시,100코달리 와인바,없음,4585,화~일 18:00~02:00,37.56330525,모두 가능,변동,Y,N,050713466774,Y,서울특별시 중구 신당동 292-152,2022-11-30,반려동물업,반려동물식당카페,카페,http://instagram.com/100caudalie,매주 월요일,서울특별시_중구,ok
732 번,127.049286,동물약국,동일로,경기도 의정부시 동일로 732,,Y,해당없음,제한사항 없음,441-65 번지,금오동,의정부시,경기도,100평 광장약국,없음,11758,월~금 10:00~18:00,37.75195739,모두 가능,변동,Y,N,031-847-1269,Y,경기도 의정부시 금오동 441-65,2022-11-30,반려동물업,반려의료,동물약국,정보없음,"매주 토, 일, 법정공휴일",경기도_의정부시,ok
87-34 번,128.30627,애견카페,봉곡서로,경상북도 구미시 봉곡서로 87-34,,Y,해당없음,"마당, 1층만 입장 가능, 목줄, 배변봉투",56-2 번지,봉곡동,구미시,경상북도,107page,없음,39204,화~일 12:00~22:00,36.15863384,모두 가능,변동,Y,Y,050713317179,N,경상북도 구미시 봉곡동 56-2,2022-11-30,반려동물업,반려동물식당카페,카페,https://www.instagram.com/107page/,매주 월요일,경상북도_구미시,ok
893 번,128.466544,일반동물병원,달구벌대로,대구광역시 달성군 다사읍 달구벌대로 893,매곡리,Y,해당없음,제한사항 없음,1551-1 번지,다사읍,달성군,대구광역시,119동물병원,없음,42913,"월~금 09:30~18:30, 토 09:30~16:00, 일 12:00~12:30, 법정공휴일 09:30~16:00",35.85715733,모두 가능,변동,Y,Y,053-585-1195,Y,대구광역시 달성군 다사읍 매곡리 1551-1,2025-03-24,반려동물업,반려의료,동물병원,https://119animal.modoo.at/,연중무휴,대구광역시_달성군,ok
43 번,127.250023,동물약국,달빛로,세종특별자치시 달빛로 43,,Y,해당없음,제한사항 없음,668 번지,종촌동,,세종특별자치시,153약국,없음,30064,"월~금 09:00~18:00, 토 09:00~13:00",36.50271902,모두 가능,변동,Y,N,050713691531,Y,세종특별자치시 종촌동 668,2022-11-30,반려동물업,반려의료,동물약국,정보없음,"매주 일요일, 법정공휴일",세종특별자치시_,ok
83 번,127.151717,애견카페,오목대길,전라북도 전주시 완산구 오목대길 83,,Y,해당없음,야외테라스만 동반 가능,98-2 번지,교동,전주시 완산구,전라북도,1723 카페,없음,55044,매일 10:30~22:00,35.81263594,모두 가능,변동,Y,Y,063-288-1723,N,전라북도 전주시 완산구 교동 98-2,2022-11-30,반려동물업,반려동물식당카페,카페,http://blog.naver.com/cafe1723,연중무휴,전라북도_전주시 완산구,ok
191 번,128.789995,애견카페,산외로,경상남도 밀양시 산외면 산외로 191,금천리,Y,해당없음,실외만 동반 가능,810-4 번지,산외면,밀양시,경상남도,1919봄,없음,50411,수~월 11:00~21:00,35.50542551,모두 가능,변동,Y,Y,050713469661,Y,경상남도 밀양시 산외면 금천리 810-4,2022-11-30,반려동물업,반려동물식당카페,카페,https://www.instagram.com/1919spring/,매주 화요일,경상남도_밀양시,ok
61 번,126.425756,애견카페,비파로,전라남도 목포시 비파로 61,,Y,해당없음,제한사항 없음,878-9 번지,상동,목포시,전라남도,1974유달동미스박,없음,58690,화~일 11:00~23:00,34.80393238,모두 가능,변동,Y,N,061-285-1974,N,전라남도 목포시 상동 878-9,2022-11-30,반려동물업,반려동물식당카페,카페,https://www.instagram.com/misspark171/,매주 월요일,전라남도_목포시,ok
74-2 번,128.559285,동물약국,진부중앙로,강원도 평창군 진부면 진부중앙로 74-2,하진부리,Y,해당없음,제한사항 없음,101 번지,진부면,평창군,강원도,1번가온누리약국,없음,25332,"월~화 08:40~18:00, 수 08:30~21:30, 목~금 08:30~17:30, 토~일, 법정공휴일 08:30~13:30",37.6376755,모두 가능,변동,Y,N,033-333-7300,Y,강원도 평창군 진부면 하진부리 101,2022-11-30,반려동물업,반려의료,동물약국,정보없음,연중무휴,강원도_평창군,ok
214 번,126.901712,동물약국,시흥대로,서울특별시 금천구 시흥대로 214,,Y,해당없음,제한사항 없음,889-8 번지,시흥동,금천구,서울특별시,1층메디컬약국,없음,8628,"월~수, 금 09:00~20:00, 목 09:00~20:30, 토 09:00~15:30, 일 09:00~13:30, 법정공휴일 10:00~16:00",37.45304289,모두 가능,변동,Y,N,02-891-1112,Y,서울특별시 금천구 시흥동 889-8,2022-11-30,반려동물업,반려의료,동물약국,정보없음,연중무휴,서울특별시_금천구,ok
410 번,127.024082,동물약국,왕십리로,서울특별시 성동구 왕십리로 410,,Y,해당없음,제한사항 없음,1070 번지,하왕십리동,성동구,서울특별시,1층이화약국,없음,4701,"월, 목 09:00~20:00, 화, 목 09:00~19:00, 수 09:00~18:00, 토 09:00~14:00",37.5665905,모두 가능,변동,Y,N,070-7798-1281,Y,서울특별시 성동구 하왕십리동 1070,2022-11-30,반려동물업,반려의료,동물약국,정보없음,매주 일요일,서울특별시_성동구,ok
108 번,129.059343,동물약국,범일로,부산광역시 동구 범일로 지하 108,,Y,해당없음,제한사항 없음,949 번지,범일동,동구,부산광역시,1호선범일약국,없음,48738,"월~금 09:00~19:00, 토 09:00~14:00",35.14072278,모두 가능,변동,Y,N,051-637-0421,N,부산광역시 동구 범일동 949,2022-11-30,반려동물업,반려의료,동물약국,정보없음,"매주 일요일, 법정공휴일",부산광역시_동구,ok
94 번,128.553719,"반려동물간식, 원데이클래스",현동6길,경상남도 창원시 마산합포구 현동6길 94,,Y,해당없음,제한사항 없음,382 번지,현동,창원시 마산합포구,경상남도,202펫푸드,없음,51778,수~일 11:30~19:00,35.15012154,모두 가능,없음,Y,N,,Y,경상남도 창원시 마산합포구 현동 382,2022-11-30,반려동물업,반려동물 서비스,반려동물용품,https://instagram.com/202petfood?igshid=euv895tg8vpe,매주 월~화,경상남도_창원시 마산합포구,ok
1 번,127.068648,동물약국,대원로,경기도 오산시 대원로 1,,Y,해당없음,제한사항 없음,880-21 번지,오산동,오산시,경기도,21세기 동규약국,없음,18138,"월~금 08:30~21:00, 토 08:30~21:00, 일 12:00~21:00, 법정공휴일 12:00~21:00",37.146604,모두 가능,변동,Y,N,031-374-2943,N,경기도 오산시 오산동 880-21,2022-11-30,반려동물업,반려의료,동물약국,정보없음,연중무휴,경기도_오산시,ok
26 번,127.114938,일반동물병원,시천로,전라북도 전주시 덕진구 시천로 26,,Y,해당없음,제한사항 없음,626-42 번지,송천2동,전주시 덕진구,전라북도,21세기 동물병원,없음,54833,정보없음,35.86154545,모두 가능,변동,Y,Y,063-251-1015,Y,전라북도 전주시 덕진구 송천동1가 626-42,2025-03-24,반려동물업,반려의료,동물병원,정보없음,정보없음,전라북도_전주시 덕진구,ok
14 번,127.158591,동물약국,산성대로372번길,경기도 성남시 중원구 산성대로372번길 14,,Y,해당없음,제한사항 없음,11 번지,금광동,성남시 중원구,경기도,21세기 세계로약국,없음,13180,"월~금 08:30~20:30, 토 08:30~20:00, 일 09:30~19:00, 법정공휴일 09:30~20:00",37.44475147,모두 가능,변동,Y,N,031-743-0624,N,경기도 성남시 중원구 금광동 11,2022-11-30,반려동물업,반려의료,동물약국,정보없음,연중무휴,경기도_성남시 중원구,ok
853 번,126.866592,동물약국,오리로,경기도 광명시 오리로 853,,Y,해당없음,제한사항 없음,495-12 번지,철산동,광명시,경기도,21세기 약국,없음,14252,"월~금 09:00~19:30, 토 09:00~15:30",37.47450425,모두 가능,변동,Y,N,02-897-7470,N,경기도 광명시 철산동 495-12,2022-11-30,반려동물업,반려의료,동물약국,정보없음,"매주 일요일, 법정공휴일",경기도_광명시,ok
43 번,129.072687,동물약국,수영로,부산광역시 남구 수영로 43,,Y,해당없음,제한사항 없음,244-14 번지,문현동,남구,부산광역시,21세기 우리네약국,없음,48421,"월~금 09:00~19:30, 토 09:00~16:30",35.13669418,모두 가능,변동,Y,N,051-646-8260,N,부산광역시 남구 문현동 244-14,2022-11-30,반려동물업,반려의료,동물약국,정보없음,"매주 일요일, 법정공휴일",부산광역시_남구,ok
523 번,127.011044,동물약국,정조로,경기도 수원시 권선구 정조로 523,,Y,해당없음,제한사항 없음,459-3 번지,세류동,수원시 권선구,경기도,21세기 정약국,없음,16587,월~금 08:30~20:30,37.25596473,모두 가능,변동,Y,N,031-234-3847,Y,경기도 수원시 권선구 세류동 459-3,2022-11-30,반려동물업,반려의료,동물약국,정보없음,"매주 토, 일, 법정공휴일",경기도_수원시 권선구,ok
1 번,126.915844,동물약국,면앙로32번길,광주광역시 북구 면앙로32번길 1,,Y,해당없음,제한사항 없음,938-1 번지,문흥동,북구,광주광역시,21세기건강약국,없음,61188,"월~토 09:00~22:00, 법정공휴일 09:00~22:00",35.17942758,모두 가능,변동,Y,N,062-261-5627,N,광주광역시 북구 문흥동 938-1,2022-11-30,반려동물업,반려의료,동물약국,정보없음,매주 일요일,광주광역시_북구,ok
46 번,126.999196,일반동물병원,보광로,서울특별시 용산구 보광로 46,,Y,해당없음,제한사항 없음,259-1 번지,보광동,용산구,서울특별시,21세기동물병원,없음,4414,월~토 09:00~18:00,37.52831582,모두 가능,변동,Y,Y,02-749-6750,Y,서울특별시 용산구 보광동 259-1,2025-03-24,반려동물업,반려의료,동물병원,https://blog.naver.com/vetsj21,매주 일요일,서울특별시_용산구,ok
46 번,126.999196,일반동물병원,보광로,서울특별시 용산구 보광로 46,,Y,해당없음,제한사항 없음,259-1 번지,보광동,용산구,서울특별시,21세기동물병원,없음,4414,월~토 09:00~18:00,37.52831582,모두 가능,변동,Y,Y,02-749-6750,Y,서울특별시 용산구 보광동 259-1,2025-03-24,반려동물업,반려의료,동물병원,https://blog.naver.com/vetsj21,매주 일요일,서울특별시_용산구,ok
503 번,126.417274,일반동물병원,영산로,전라남도 목포시 영산로 503,,Y,해당없음,제한사항 없음,127-6 번지,상동,목포시,전라남도,21세기동물병원,없음,58643,정보없음,34.81064748,모두 가능,변동,Y,Y,061-279-0006,N,전라남도 목포시 상동 127-6,2025-03-24,반려동물업,반려의료,동물병원,정보없음,정보없음,전라남도_목포시,ok
503 번,126.417274,일반동물병원,영산로,전라남도 목포시 영산로 503,,Y,해당없음,제한사항 없음,127-6 번지,상동,목포시,전라남도,21세기동물병원,없음,58643,정보없음,34.81064748,모두 가능,변동,Y,Y,061-279-0006,N,전라남도 목포시 상동 127-6,2025-03-24,반려동물업,반려의료,동물병원,정보없음,정보없음,전라남도_목포시,ok
623 번,126.732054,동물약국,길주로,인천광역시 부평구 길주로 623,,Y,해당없음,제한사항 없음,465-1 번지,삼산동,부평구,인천광역시,21세기맑은약국,없음,21344,월~토 10:00~21:00,37.50788819,모두 가능,변동,Y,N,032-363-2201,N,인천광역시 부평구 삼산동 465-1,2022-11-30,반려동물업,반려의료,동물약국,정보없음,매주 일요일,인천광역시_부평구,ok
53 번,126.831888,동물약국,화정로,경기도 고양시 덕양구 화정로 53,,Y,해당없음,제한사항 없음,969-1 번지,화정동,고양시 덕양구,경기도,21세기새롬약국,없음,10497,"월~금 09:00~21:00, 토 09:00~18:00, 일, 법정공휴일 09:00~21:00",37.63522599,모두 가능,변동,Y,N,031-965-4677,Y,경기도 고양시 덕양구 화정동 969-1,2022-11-30,반려동물업,반려의료,동물약국,정보없음,연중무휴,경기도_고양시 덕양구,ok
47 번,126.733548,동물약국,만수로,인천광역시 남동구 만수로 47,,Y,해당없음,제한사항 없음,72-38 번지,만수동,남동구,인천광역시,21세기약국,없음,21524,"월~금 08:30~20:00, 토 08:30~15:00, 일 10:00~20:00, 법정공휴일 10:00~20:00",37.46054362,모두 가능,변동,Y,N,032-468-3737,N,인천광역시 남동구 만수동 72-38,2022-11-30,반려동물업,반려의료,동물약국,정보없음,연중무휴,인천광역시_남동구,ok
47 번,126.733548,동물약국,만수로,인천광역시 남동구 만수로 47,,Y,해당없음,제한사항 없음,72-38 번지,만수동,남동구,인천광역시,21세기약국,없음,21524,"월~금 08:30~20:00, 토 08:30~15:00, 일 10:00~20:00, 법정공휴일 10:00~20:00",37.46054362,모두 가능,변동,Y,N,032-468-3737,N,인천광역시 남동구 만수동 72-38,2022-11-30,반려동물업,반려의료,동물약국,정보없음,연중무휴,인천광역시_남동구,ok
47 번,126.733548,동물약국,만수로,인천광역시 남동구 만수로 47,,Y,해당없음,제한사항 없음,72-38 번지,만수동,남동구,인천광역시,21세기약국,없음,21524,"월~금 08:30~20:00, 토 08:30~15:00, 일 10:00~20:00, 법정공휴일 10:00~20:00",37.46054362,모두 가능,변동,Y,N,032-468-3737,N,인천광역시 남동구 만수동 72-38,2022-11-30,반려동물업,반려의료,동물약국,정보없음,연중무휴,인천광역시_남동구,ok
47 번,126.733548,동물약국,만수로,인천광역시 남동구 만수로 47,,Y,해당없음,제한사항 없음,72-38 번지,만수동,남동구,인천광역시,21세기약국,없음,21524,"월~금 08:30~20:00, 토 08:30~15:00, 일 10:00~20:00, 법정공휴일 10:00~20:00",37.46054362,모두 가능,변동,Y,N,032-468-3737,N,인천광역시 남동구 만수동 72-38,2022-11-30,반려동물업,반려의료,동물약국,정보없음,연중무휴,인천광역시_남동구,ok
47 번,126.733548,동물약국,만수로,인천광역시 남동구 만수로 47,,Y,해당없음,제한사항 없음,72-38 번지,만수동,남동구,인천광역시,21세기약국,없음,21524,"월~금 08:30~20:00, 토 08:30~15:00, 일 10:00~20:00, 법정공휴일 10:00~20:00",37.46054362,모두 가능,변동,Y,N,032-468-3737,N,인천광역시 남동구 만수동 72-38,2022-11-30,반려동물업,반려의료,동물약국,정보없음,연중무휴,인천광역시_남동구,ok
64-1 번,127.750636,동물약국,보안길,강원도 춘천시 보안길 64-1,,Y,해당없음,제한사항 없음,456-10 번지,후평동,춘천시,강원도,21세기약국,없음,24302,"월~금 09:00~19:00, 토 09:00~13:00",37.88022669,모두 가능,변동,Y,N,033-255-0990,N,강원도 춘천시 후평동 456-10,2022-11-30,반려동물업,반려의료,동물약국,정보없음,"매주 일요일, 법정공휴일",강원도_춘천시,ok
64-1 번,127.750636,동물약국,보안길,강원도 춘천시 보안길 64-1,,Y,해당없음,제한사항 없음,456-10 번지,후평동,춘천시,강원도,21세기약국,없음,24302,"월~금 09:00~19:00, 토 09:00~13:00",37.88022669,모두 가능,변동,Y,N,033-255-0990,N,강원도 춘천시 후평동 456-10,2022-11-30,반려동물업,반려의료,동물약국,정보없음,"매주 일요일, 법정공휴일",강원도_춘천시,ok
64-1 번,127.750636,동물약국,보안길,강원도 춘천시 보안길 64-1,,Y,해당없음,제한사항 없음,456-10 번지,후평동,춘천시,강원도,21세기약국,없음,24302,"월~금 09:00~19:00, 토 09:00~13:00",37.88022669,모두 가능,변동,Y,N,033-255-0990,N,강원도 춘천시 후평동 456-10,2022-11-30,반려동물업,반려의료,동물약국,정보없음,"매주 일요일, 법정공휴일",강원도_춘천시,ok
64-1 번,127.750636,동물약국,보안길,강원도 춘천시 보안길 64-1,,Y,해당없음,제한사항 없음,456-10 번지,후평동,춘천시,강원도,21세기약국,없음,24302,"월~금 09:00~19:00, 토 09:00~13:00",37.88022669,모두 가능,변동,Y,N,033-255-0990,N,강원도 춘천시 후평동 456-10,2022-11-30,반려동물업,반려의료,동물약국,정보없음,"매주 일요일, 법정공휴일",강원도_춘천시,ok
64-1 번,127.750636,동물약국,보안길,강원도 춘천시 보안길 64-1,,Y,해당없음,제한사항 없음,456-10 번지,후평동,춘천시,강원도,21세기약국,없음,24302,"월~금 09:00~19:00, 토 09:00~13:00",37.88022669,모두 가능,변동,Y,N,033-255-0990,N,강원도 춘천시 후평동 456-10,2022-11-30,반려동물업,반려의료,동물약국,정보없음,"매주 일요일, 법정공휴일",강원도_춘천시,ok
5 번,128.339361,동물약국,송정대로,경상북도 구미시 송정대로 5,,Y,해당없음,제한사항 없음,27-11 번지,송정동,구미시,경상북도,21세기약국,없음,39284,"월~금 09:00~23:30, 토 09:00~23:30, 일 10:30~23:30, 법정공휴일 09:00~23:30",36.11678861,모두 가능,변동,Y,N,054-452-2121,Y,경상북도 구미시 송정동 27-11,2022-11-30,반려동물업,반려의료,동물약국,정보없음,연중무휴,경상북도_구미시,ok
5 번,128.339361,동물약국,송정대로,경상북도 구미시 송정대로 5,,Y,해당없음,제한사항 없음,27-11 번지,송정동,구미시,경상북도,21세기약국,없음,39284,"월~금 09:00~23:30, 토 09:00~23:30, 일 10:30~23:30, 법정공휴일 09:00~23:30",36.11678861,모두 가능,변동,Y,N,054-452-2121,Y,경상북도 구미시 송정동 27-11,2022-11-30,반려동물업,반려의료,동물약국,정보없음,연중무휴,경상북도_구미시,ok
5 번,128.339361,동물약국,송정대로,경상북도 구미시 송정대로 5,,Y,해당없음,제한사항 없음,27-11 번지,송정동,구미시,경상북도,21세기약국,없음,39284,"월~금 09:00~23:30, 토 09:00~23:30, 일 10:30~23:30, 법정공휴일 09:00~23:30",36.11678861,모두 가능,변동,Y,N,054-452-2121,Y,경상북도 구미시 송정동 27-11,2022-11-30,반려동물업,반려의료,동물약국,정보없음,연중무휴,경상북도_구미시,ok
5 번,128.339361,동물약국,송정대로,경상북도 구미시 송정대로 5,,Y,해당없음,제한사항 없음,27-11 번지,송정동,구미시,경상북도,21세기약국,없음,39284,"월~금 09:00~23:30, 토 09:00~23:30, 일 10:30~23:30, 법정공휴일 09:00~23:30",36.11678861,모두 가능,변동,Y,N,054-452-2121,Y,경상북도 구미시 송정동 27-11,2022-11-30,반려동물업,반려의료,동물약국,정보없음,연중무휴,경상북도_구미시,ok
5 번,128.339361,동물약국,송정대로,경상북도 구미시 송정대로 5,,Y,해당없음,제한사항 없음,27-11 번지,송정동,구미시,경상북도,21세기약국,없음,39284,"월~금 09:00~23:30, 토 09:00~23:30, 일 10:30~23:30, 법정공휴일 09:00~23:30",36.11678861,모두 가능,변동,Y,N,054-452-2121,Y,경상북도 구미시 송정동 27-11,2022-11-30,반려동물업,반려의료,동물약국,정보없음,연중무휴,경상북도_구미시,ok
1393 번,129.07748,동물약국,중앙대로,부산광역시 동래구 중앙대로 1393,,Y,해당없음,제한사항 없음,502-3 번지,온천동,동래구,부산광역시,21세기약국,없음,47727,"월~토 09:00~21:00, 일 11:00~21:00",35.21170799,모두 가능,변동,Y,N,051-668-2751,N,부산광역시 동래구 온천동 502-3,2022-11-30,반려동물업,반려의료,동물약국,정보없음,연중무휴,부산광역시_동래구,ok
1393 번,129.07748,동물약국,중앙대로,부산광역시 동래구 중앙대로 1393,,Y,해당없음,제한사항 없음,502-3 번지,온천동,동래구,부산광역시,21세기약국,없음,47727,"월~토 09:00~21:00, 일 11:00~21:00",35.21170799,모두 가능,변동,Y,N,051-668-2751,N,부산광역시 동래구 온천동 502-3,2022-11-30,반려동물업,반려의료,동물약국,정보없음,연중무휴,부산광역시_동래구,ok
1393 번,129.07748,동물약국,중앙대로,부산광역시 동래구 중앙대로 1393,,Y,해당없음,제한사항 없음,502-3 번지,온천동,동래구,부산광역시,21세기약국,없음,47727,"월~토 09:00~21:00, 일 11:00~21:00",35.21170799,모두 가능,변동,Y,N,051-668-2751,N,부산광역시 동래구 온천동 502-3,2022-11-30,반려동물업,반려의료,동물약국,정보없음,연중무휴,부산광역시_동래구,ok
1393 번,129.07748,동물약국,중앙대로,부산광역시 동래구 중앙대로 1393,,Y,해당없음,제한사항 없음,502-3 번지,온천동,동래구,부산광역시,21세기약국,없음,47727,"월~토 09:00~21:00, 일 11:00~21:00",35.21170799,모두 가능,변동,Y,N,051-668-2751,N,부산광역시 동래구 온천동 502-3,2022-11-30,반려동물업,반려의료,동물약국,정보없음,연중무휴,부산광역시_동래구,ok
1393 번,129.07748,동물약국,중앙대로,부산광역시 동래구 중앙대로 1393,,Y,해당없음,제한사항 없음,502-3 번지,온천동,동래구,부산광역시,21세기약국,없음,47727,"월~토 09:00~21:00, 일 11:00~21:00",35.21170799,모두 가능,변동,Y,N,051-668-2751,N,부산광역시 동래구 온천동 502-3,2022-11-30,반려동물업,반려의료,동물약국,정보없음,연중무휴,부산광역시_동래구,ok
240 번,126.87483,동물약국,금화로,광주광역시 서구 금화로 240,,Y,해당없음,제한사항 없음,423-2 번지,풍암동,서구,광주광역시,21세기약국,없음,62048,"월~금 10:00~22:00, 토 10:00~22:00, 일 10:00~22:00, 법정공휴일 10:00~22:00",35.13364608,모두 가능,변동,Y,N,062-652-8825,N,광주광역시 서구 풍암동 423-2,2022-11-30,반려동물업,반려의료,동물약국,정보없음,연중무휴,광주광역시_서구,ok
240 번,126.87483,동물약국,금화로,광주광역시 서구 금화로 240,,Y,해당없음,제한사항 없음,423-2 번지,풍암동,서구,광주광역시,21세기약국,없음,62048,"월~금 10:00~22:00, 토 10:00~22:00, 일 10:00~22:00, 법정공휴일 10:00~22:00",35.13364608,모두 가능,변동,Y,N,062-652-8825,N,광주광역시 서구 풍암동 423-2,2022-11-30,반려동물업,반려의료,동물약국,정보없음,연중무휴,광주광역시_서구,ok
240 번,126.87483,동물약국,금화로,광주광역시 서구 금화로 240,,Y,해당없음,제한사항 없음,423-2 번지,풍암동,서구,광주광역시,21세기약국,없음,62048,"월~금 10:00~22:00, 토 10:00~22:00, 일 10:00~22:00, 법정공휴일 10:00~22:00",35.13364608,모두 가능,변동,Y,N,062-652-8825,N,광주광역시 서구 풍암동 423-2,2022-11-30,반려동물업,반려의료,동물약국,정보없음,연중무휴,광주광역시_서구,ok
240 번,126.87483,동물약국,금화로,광주광역시 서구 금화로 240,,Y,해당없음,제한사항 없음,423-2 번지,풍암동,서구,광주광역시,21세기약국,없음,62048,"월~금 10:00~22:00, 토 10:00~22:00, 일 10:00~22:00, 법정공휴일 10:00~22:00",35.13364608,모두 가능,변동,Y,N,062-652-8825,N,광주광역시 서구 풍암동 423-2,2022-11-30,반려동물업,반려의료,동물약국,정보없음,연중무휴,광주광역시_서구,ok
240 번,126.87483,동물약국,금화로,광주광역시 서구 금화로 240,,Y,해당없음,제한사항 없음,423-2 번지,풍암동,서구,광주광역시,21세기약국,없음,62048,"월~금 10:00~22:00, 토 10:00~22:00, 일 10:00~22:00, 법정공휴일 10:00~22:00",35.13364608,모두 가능,변동,Y,N,062-652-8825,N,광주광역시 서구 풍암동 423-2,2022-11-30,반려동물업,반려의료,동물약국,정보없음,연중무휴,광주광역시_서구,ok
216 번,128.636764,일반동물병원,아양로,대구광역시 동구 아양로 216,,Y,해당없음,제한사항 없음,64-6 번지,효목동,동구,대구광역시,21세기종합동물병원,없음,41168,정보없음,35.8859379,모두 가능,변동,Y,Y,053-959-0121,N,대구광역시 동구 효목동 64-6,2025-03-24,반려동물업,반려의료,동물병원,정보없음,정보없음,대구광역시_동구,ok
216 번,128.636764,일반동물병원,아양로,대구광역시 동구 아양로 216,,Y,해당없음,제한사항 없음,64-6 번지,효목동,동구,대구광역시,21세기종합동물병원,없음,41168,정보없음,35.8859379,모두 가능,변동,Y,Y,053-959-0121,N,대구광역시 동구 효목동 64-6,2025-03-24,반려동물업,반려의료,동물병원,정보없음,정보없음,대구광역시_동구,ok
34 번,129.008783,일반동물병원,만덕대로,부산광역시 북구 만덕대로 34,,Y,해당없음,제한사항 없음,383-3 번지,덕천동,북구,부산광역시,21세기종합동물병원,없음,46577,"월~금 9:00~20:00, 토~일 9:00~18:00",35.21075927,모두 가능,변동,Y,Y,051-365-0075,Y,부산광역시 북구 덕천동 383-3,2025-03-24,반려동물업,반려의료,동물병원,정보없음,연중무휴,부산광역시_북구,ok
34 번,129.008783,일반동물병원,만덕대로,부산광역시 북구 만덕대로 34,,Y,해당없음,제한사항 없음,383-3 번지,덕천동,북구,부산광역시,21세기종합동물병원,없음,46577,"월~금 9:00~20:00, 토~일 9:00~18:00",35.21075927,모두 가능,변동,Y,Y,051-365-0075,Y,부산광역시 북구 덕천동 383-3,2025-03-24,반려동물업,반려의료,동물병원,정보없음,연중무휴,부산광역시_북구,ok
400-8 번,127.132838,동물약국,기린대로,전라북도 전주시 덕진구 기린대로 400-8,,Y,해당없음,제한사항 없음,720-35 번지,금암동,전주시 덕진구,전라북도,21세기종합약국,없음,54931,"월~금 09:00~19:00, 토 09:00~19:00",35.83802026,모두 가능,변동,Y,N,063-274-4949,N,전라북도 전주시 덕진구 금암동 720-35,2022-11-30,반려동물업,반려의료,동물약국,정보없음,"매주 일요일, 법정공휴일",전라북도_전주시 덕진구,ok
173 번,126.840751,동물약국,화곡로,서울특별시 강서구 화곡로 173,,Y,해당없음,제한사항 없음,1064-4 번지,화곡동,강서구,서울특별시,21C 세계로약국,없음,7702,"월~금 08:30~20:30, 토, 법정공휴일 08:30~20:00, 일 09:30~19:00",37.54204619,모두 가능,변동,Y,N,02-2607-0624,N,서울특별시 강서구 화곡동 1064-4,2022-11-30,반려동물업,반려의료,동물약국,정보없음,연중무휴,서울특별시_강서구,ok
9 번,127.118397,동물약국,청학로중앙길,경기도 남양주시 별내면 청학로중앙길 9,청학리,Y,해당없음,제한사항 없음,413 번지,별내면,남양주시,경기도,21c청학보건당,없음,12084,월~일 법정공휴일 09:00~22:00,37.7086949,모두 가능,변동,Y,N,031-821-1653,Y,경기도 남양주시 별내면 청학리 413,2022-11-30,반려동물업,반려의료,동물약국,정보없음,연중무휴,경기도_남양주시,ok
95 번,128.596901,동물약국,동성로2길,대구광역시 중구 동성로2길 95,,Y,해당없음,제한사항 없음,66-1 번지,성내1동,중구,대구광역시,228약국,없음,41938,"월~금 09:00~20:30, 토 09:00~17:00",35.87018992,모두 가능,변동,Y,N,053-422-2228,Y,대구광역시 중구 동성로2가 66-1,2022-11-30,반려동물업,반려의료,동물약국,정보없음,매주 일요일,대구광역시_중구,ok
2396 번,128.624455,동물약국,달구벌대로,대구광역시 수성구 달구벌대로 지하 2396,,Y,해당없음,제한사항 없음,835 번지,범어동,수성구,대구광역시,22세기 약국,없음,42117,"월~금 08:30~20:30, 토 09:00~19:00",35.85901475,모두 가능,변동,Y,N,053-741-6467,N,대구광역시 수성구 범어동 835,2022-11-30,반려동물업,반려의료,동물약국,정보없음,"매주 일요일, 법정공휴일",대구광역시_수성구,ok
2396 번,128.624455,동물약국,달구벌대로,대구광역시 수성구 달구벌대로 지하 2396,,Y,해당없음,제한사항 없음,835 번지,범어동,수성구,대구광역시,22세기 약국,없음,42117,"월~금 08:30~20:30, 토 09:00~19:00",35.85901475,모두 가능,변동,Y,N,053-741-6467,N,대구광역시 수성구 범어동 835,2022-11-30,반려동물업,반려의료,동물약국,정보없음,"매주 일요일, 법정공휴일",대구광역시_수성구,ok
222 번,127.508761,동물약국,팔마로,전라남도 순천시 팔마로 222,,Y,해당없음,제한사항 없음,300 번지,풍덕동,순천시,전라남도,22세기 약국,없음,57993,"월~금 08:00~20:00, 토 09:00~19:00",34.93990631,모두 가능,변동,Y,N,053-741-6467,N,전라남도 순천시 풍덕동 300,2022-11-30,반려동물업,반려의료,동물약국,정보없음,매주 일요일,전라남도_순천시,ok
222 번,127.508761,동물약국,팔마로,전라남도 순천시 팔마로 222,,Y,해당없음,제한사항 없음,300 번지,풍덕동,순천시,전라남도,22세기 약국,없음,57993,"월~금 08:00~20:00, 토 09:00~19:00",34.93990631,모두 가능,변동,Y,N,053-741-6467,N,전라남도 순천시 풍덕동 300,2022-11-30,반려동물업,반려의료,동물약국,정보없음,매주 일요일,전라남도_순천시,ok
72 번,126.820063,일반동물병원,마곡중앙1로,서울특별시 강서구 마곡중앙1로 72,,Y,해당없음,제한사항 없음,747 번지,마곡동,강서구,서울특별시,24시 강서 젠틀리동물의료센터,없음,7629,매일 00:00~24:00,37.55904001,모두 가능,변동,Y,Y,02-2662-8111,Y,서울특별시 강서구 마곡동 747,2025-03-24,반려동물업,반려의료,동물병원,https://blog.naver.com/gentlelee2020,연중무휴,서울특별시_강서구,ok
287 번,126.679984,일반동물병원,인하로,인천광역시 미추홀구 인하로 287,,Y,해당없음,제한사항 없음,1464-22 번지,주안동,미추홀구,인천광역시,24시 건국 본 동물병원,없음,22227,매일 00:00~24:00,37.44824636,모두 가능,변동,Y,Y,032-864-0075,Y,인천광역시 미추홀구 주안동 1464-22,2025-03-24,반려동물업,반려의료,동물병원,https://blog.naver.com/kvet95,연중무휴,인천광역시_미추홀구,ok
1861 번,126.956867,일반동물병원,남부순환로,서울특별시 관악구 남부순환로 1861,,Y,해당없음,제한사항 없음,1673-21 번지,봉천동,관악구,서울특별시,24시 굿케어동물의료센터,없음,8739,매일 00:00~24:00,37.48000009,모두 가능,변동,Y,Y,02-6956-2475,Y,서울특별시 관악구 봉천동 1673-21,2025-03-24,반려동물업,반려의료,동물병원,https://blog.naver.com/goodcare24,연중무휴,서울특별시_관악구,ok
483 번,126.898256,일반동물병원,시흥대로,서울특별시 금천구 시흥대로 483,,Y,해당없음,제한사항 없음,145-13 번지,독산동,금천구,서울특별시,24시 글로리 동물병원,없음,8531,매일 00:00~24:00,37.47674386,모두 가능,변동,Y,Y,02-855-8575,Y,서울특별시 금천구 독산동 145-13,2025-03-24,반려동물업,반려의료,동물병원,https://blog.naver.com/gloryamc,연중무휴,서울특별시_금천구,ok
100 번,126.983998,일반동물병원,천천로,경기도 수원시 장안구 천천로 100,,Y,해당없음,제한사항 없음,516 번지,천천동,수원시 장안구,경기도,24시 당신의 동물의료센터,없음,16326,매일 00:00~24:00,37.30062503,모두 가능,변동,Y,Y,031-268-6575,Y,경기도 수원시 장안구 천천동 516,2025-03-24,반려동물업,반려의료,동물병원,http://www.youramc.co.kr/,연중무휴,경기도_수원시 장안구,ok
47 번,128.625276,일반동물병원,동문천로,경상남도 거제시 동문천로 47,,Y,해당없음,제한사항 없음,203-1 번지,고현동,거제시,경상남도,24시 더나은 동물메디컬 센터,없음,53256,"월~토 10:00~21:00, 일 11:00~21:00",34.88298876,모두 가능,변동,Y,Y,055-716-1175,Y,경상남도 거제시 고현동 203-1,2025-03-24,반려동물업,반려의료,동물병원,https://blog.naver.com/thenaeun75,연중무휴,경상남도_거제시,ok
27 번,126.647045,일반동물병원,청라커낼로260번길,인천광역시 서구 청라커낼로260번길 27,,Y,해당없음,제한사항 없음,157-21 번지,청라동,서구,인천광역시,24시 더블유 동물의료센터,없음,22762,매일 10:00~21:00,37.53238773,모두 가능,변동,Y,Y,032-565-8270,Y,인천광역시 서구 청라동 157-21,2025-03-24,반려동물업,반려의료,동물병원,https://www.instagram.com/24w_amc/,연중무휴,인천광역시_서구,ok
41 번,126.712012,일반동물병원,발산로,인천광역시 서구 발산로 41,,Y,해당없음,제한사항 없음,1043-9 번지,원당동,서구,인천광역시,24시 더원 동물병원,없음,22866,매일 00:00~24:00,37.59299096,모두 가능,변동,Y,Y,032-569-6677,Y,인천광역시 서구 원당동 1043-9,2025-03-24,반려동물업,반려의료,동물병원,http://www.bobospet.com/home/index.php,연중무휴,인천광역시_서구,ok
294 번,127.147316,일반동물병원,경춘로,경기도 구리시 경춘로 294,,Y,해당없음,제한사항 없음,561-2 번지,수택동,구리시,경기도,24시 더케어 동물의료센터,없음,11930,매일 00:00~24:00,37.60332974,모두 가능,변동,Y,Y,031-516-8585,Y,경기도 구리시 수택동 561-2,2025-03-24,반려동물업,반려의료,동물병원,http://thecare24.com/,연중무휴,경기도_구리시,ok
247 번,127.079577,일반동물병원,망우로,서울특별시 중랑구 망우로 247,,Y,해당없음,제한사항 없음,207 번지,중화동,중랑구,서울특별시,24시 동물응급의료센터,없음,2117,매일 00:00~24:00,37.59532179,모두 가능,변동,Y,Y,02-494-7582,Y,서울특별시 중랑구 중화동 207,2025-03-24,반려동물업,반려의료,동물병원,http://royalamc.com/,연중무휴,서울특별시_중랑구,ok
15 번,127.108433,"일반동물병원, 강아지용품, 24시간",동탄대로6길,경기도 화성시 동탄대로6길 15,,Y,해당없음,제한사항 없음,727-4 번지,산척동,화성시,경기도,24시 동탄 이음동물의료센터,없음,18501,매일 00:00~24:00,37.16873878,모두 가능,변동,Y,Y,031-831-3513,Y,경기도 화성시 산척동 727-4,2025-03-24,반려동물업,반려의료,동물병원,http://www.eumamc.com/,연중무휴,경기도_화성시,ok
20-24 번,127.114167,일반동물병원,비전5로,경기도 평택시 비전5로 20-24,,Y,해당없음,제한사항 없음,1103-1 번지,비전동,평택시,경기도,24시 라움동물의료센터,없음,17854,매일 00:00~24:00,36.99887465,모두 가능,변동,Y,Y,031-692-5022,Y,경기도 평택시 비전동 1103-1,2025-03-24,반려동물업,반려의료,동물병원,https://blog.naver.com/dvmimk,연중무휴,경기도_평택시,ok
70 번,126.896113,일반동물병원,동송로,경기도 고양시 덕양구 동송로 70,,Y,해당없음,제한사항 없음,291 번지,삼송동,고양시 덕양구,경기도,24시 라인동물의료센터,없음,10591,매일 00:00~24:00,37.65267981,모두 가능,변동,Y,Y,02-381-2475,Y,경기도 고양시 덕양구 삼송동 291,2025-03-24,반려동물업,반려의료,동물병원,https://blog.naver.com/24lineamc,연중무휴,경기도_고양시 덕양구,ok
194 번,129.080986,일반동물병원,충렬대로,부산광역시 동래구 충렬대로 194,,Y,해당없음,제한사항 없음,506-13 번지,명륜동,동래구,부산광역시,24시 리본동물의료센터,없음,47815,"월~금 09:30~19:00, 토 09:30~19:00",35.20291604,모두 가능,변동,Y,Y,051-711-0006,Y,부산광역시 동래구 명륜동 506-13,2025-03-24,반려동물업,반려의료,동물병원,https://blog.naver.com/rebornamc,매주 일요일,부산광역시_동래구,ok
96 번,126.991039,"24시간, 무인, 반려동물용품",파장로,경기도 수원시 장안구 파장로 96,,Y,해당없음,제한사항 없음,572-56 번지,파장동,수원시 장안구,경기도,24시 멍냥마켓 파장점,없음,16349,매일 00:00~24:00,37.30752086,모두 가능,없음,Y,N,,Y,경기도 수원시 장안구 파장동 572-56,2022-11-30,반려동물업,반려동물 서비스,반려동물용품,정보없음,연중무휴,경기도_수원시 장안구,ok
775 번,126.847162,일반동물병원,남부순환로,서울특별시 구로구 남부순환로 775,,Y,해당없음,제한사항 없음,492 번지,개봉동,구로구,서울특별시,24시 명동물메디컬센터,없음,8236,매일 00:00~24:00,37.50156787,모두 가능,변동,Y,Y,02-2619-5102,Y,서울특별시 구로구 개봉동 492,2025-03-24,반려동물업,반려의료,동물병원,https://blog.naver.com/petsong1472,연중무휴,서울특별시_구로구,ok
289 번,126.880189,일반동물병원,하안로,경기도 광명시 하안로 289,,Y,해당없음,제한사항 없음,51 번지,하안동,광명시,경기도,24시 모두의동물병원,없음,14305,매일 00:00~24:00,37.4616896,모두 가능,변동,Y,Y,02-6951-2475,Y,경기도 광명시 하안동 51,2025-03-24,반려동물업,반려의료,동물병원,https://blog.naver.com/moduamc,연중무휴,경기도_광명시,ok
1448 번,127.273675,일반동물병원,경충대로,경기도 광주시 경충대로 1448,,Y,해당없음,제한사항 없음,168-2 번지,쌍령동,광주시,경기도,24시 모란동물 메디컬센터,없음,12791,매일 00:00~24:00,37.39940493,모두 가능,변동,Y,Y,031-765-1100,Y,경기도 광주시 쌍령동 168-2,2025-03-24,반려동물업,반려의료,동물병원,https://blog.naver.com/kimsh8774,연중무휴,경기도_광주시,ok
689 번,127.043409,"강아지용품, 24시간, 무인",평화로,경기도 의정부시 평화로 689,,Y,해당없음,제한사항 없음,28-3 번지,가능동,의정부시,경기도,24시 무인 애완용품 펫싸롱 4호점,없음,11685,매일 00:00~24:00,37.75328223,모두 가능,없음,Y,N,031-848-2711,Y,경기도 의정부시 가능동 28-3,2022-11-30,반려동물업,반려동물 서비스,반려동물용품,정보없음,연중무휴,경기도_의정부시,ok
1187 번,127.035937,"강아지용품, 24시간, 무인",호국로,경기도 의정부시 호국로 1187-2,,Y,해당없음,제한사항 없음,732-10 번지,가능동,의정부시,경기도,24시 무인 애완용품 펫싸롱 의정부점,없음,11667,매일 00:00~24:00,37.74353429,모두 가능,없음,Y,N,031-855-2710,Y,경기도 의정부시 가능동 732-10,2022-11-30,반려동물업,반려동물 서비스,반려동물용품,정보없음,연중무휴,경기도_의정부시,ok
9 번,127.152921,일반동물병원,동백3로11번길,경기도 용인시 기흥구 동백3로11번길 9,,Y,해당없음,제한사항 없음,851-2 번지,중동,용인시 기흥구,경기도,24시 블레스동물메디컬센터,없음,17006,매일 00:00~24:00,37.26968181,모두 가능,변동,Y,Y,031-546-0942,Y,경기도 용인시 기흥구 중동 851-2,2025-03-24,반려동물업,반려의료,동물병원,http://blessamc.com/,연중무휴,경기도_용인시 기흥구,ok
36 번,126.876256,일반동물병원,대자로,광주광역시 북구 대자로 36,,Y,해당없음,제한사항 없음,439-1 번지,운암동,북구,광주광역시,24시 블루밍 동물병원,없음,61262,매일 08:00~24:00,35.17331179,모두 가능,변동,Y,Y,062-416-7975,Y,광주광역시 북구 운암동 439-1,2025-03-24,반려동물업,반려의료,동물병원,https://blog.naver.com/bloomingah,연중무휴,광주광역시_북구,ok
124 번,127.079742,일반동물병원,수지로,경기도 용인시 수지구 수지로 124,,Y,해당없음,제한사항 없음,67-6 번지,성복동,용인시 수지구,경기도,24시 사람앤동물메디컬센터,없음,16858,매일 00:00~24:00,37.31268393,모두 가능,변동,Y,Y,031-262-0306,Y,경기도 용인시 수지구 성복동 67-6,2025-03-24,반려동물업,반려의료,동물병원,http://www.snamc.co.kr/,연중무휴,경기도_용인시 수지구,ok
7 번,126.956497,일반동물병원,마포대로16길,서울특별시 마포구 마포대로16길 7,,Y,해당없음,제한사항 없음,424-14 번지,아현동,마포구,서울특별시,24시 산들산들 동물병원,없음,4205,"월~금 10:00~24:00, 토~일 10:00~20:00",37.55097463,모두 가능,변동,Y,Y,02-393-3588,Y,서울특별시 마포구 아현동 424-14,2025-03-24,반려동물업,반려의료,동물병원,https://24sdsdah.modoo.at/,연중무휴,서울특별시_마포구,ok
237 번,126.853643,일반동물병원,중앙로,서울특별시 양천구 중앙로 237,,Y,해당없음,제한사항 없음,1182-11 번지,신정동,양천구,서울특별시,24시 서울 탑 동물병원,없음,8073,매일 09:00~21:00,37.51774297,모두 가능,변동,Y,Y,02-2601-8875,Y,서울특별시 양천구 신정동 1182-11,2025-03-24,반려동물업,반려의료,동물병원,https://blog.naver.com/animalhospital-,연중무휴,서울특별시_양천구,ok
